{"type": "FeatureCollection", "features": [{"id": "0", "type": "Feature", "properties": {"age": "Late Ordovician", "comment": "Late Ordovician-Silurian", "commodities": ["Au", "Cu"], "commodities_string": "Au;Cu", "id": 333286, "latitude": -36.11538783, "longitude": 147.09125319999998, "name": "Bethanga"}, "geometry": {"type": "Point", "coordinates": [147.09125319999998, -36.11538783]}}, {"id": "1", "type": "Feature", "properties": {"age": "Late Palaeozoic", "comment": "nan", "commodities": ["Ag", "Zn", "Pb"], "commodities_string": "Ag;Zn;Pb", "id": 333287, "latitude": -18.71084053, "longitude": 125.9680199, "name": "Cadjebut"}, "geometry": {"type": "Point", "coordinates": [125.9680199, -18.71084053]}}, {"id": "2", "type": "Feature", "properties": {"age": "Tertiary", "comment": "nan", "commodities": ["U"], "commodities_string": "U", "id": 333288, "latitude": -31.74095042, "longitude": 140.6623645, "name": "Honeymoon"}, "geometry": {"type": "Point", "coordinates": [140.6623645, -31.74095042]}}, {"id": "3", "type": "Feature", "properties": {"age": "Precambrian", "comment": "nan", "commodities": ["Fe"], "commodities_string": "Fe", "id": 333289, "latitude": -22.63545578, "longitude": 118.1385991, "name": "Marandoo"}, "geometry": {"type": "Point", "coordinates": [118.1385991, -22.63545578]}}, {"id": "4", "type": "Feature", "properties": {"age": "Neoproterozoic", "comment": "coincides with NNW trending transcontinental gravity lineament extending to the Olympic Dam deposit", "commodities": ["Ag", "Cu", "Co"], "commodities_string": "Ag;Cu;Co", "id": 333290, "latitude": -31.44709128, "longitude": 137.1499808, "name": "Mount Gunson"}, "geometry": {"type": "Point", "coordinates": [137.1499808, -31.44709128]}}, {"id": "5", "type": "Feature", "properties": {"age": "Early Devonian", "comment": "nan", "commodities": ["Au", "Cu"], "commodities_string": "Au;Cu", "id": 333291, "latitude": -31.5403, "longitude": 145.864, "name": "New Occidental"}, "geometry": {"type": "Point", "coordinates": [145.864, -31.5403]}}, {"id": "6", "type": "Feature", "properties": {"age": "Cainozoic", "comment": "age of alluvial deposits; vein mineralisation is Palaeozoic", "commodities": ["Au"], "commodities_string": "Au", "id": 333292, "latitude": -15.87711519, "longitude": 143.4665044, "name": "Palmer River"}, "geometry": {"type": "Point", "coordinates": [143.4665044, -15.87711519]}}, {"id": "7", "type": "Feature", "properties": {"age": "Carboniferous", "comment": "nan", "commodities": ["U"], "commodities_string": "U", "id": 333293, "latitude": -23.87711034, "longitude": 133.9200055, "name": "Pamela"}, "geometry": {"type": "Point", "coordinates": [133.9200055, -23.87711034]}}, {"id": "8", "type": "Feature", "properties": {"age": "Archaean", "comment": "nan", "commodities": ["Au"], "commodities_string": "Au", "id": 333294, "latitude": -31.0452, "longitude": 122.2123, "name": "Randalls"}, "geometry": {"type": "Point", "coordinates": [122.2123, -31.0452]}}, {"id": "9", "type": "Feature", "properties": {"age": "Tertiary", "comment": "nan", "commodities": ["Fe"], "commodities_string": "Fe", "id": 333295, "latitude": -21.71437279, "longitude": 116.50004140000001, "name": "Robe River"}, "geometry": {"type": "Point", "coordinates": [116.50004140000001, -21.71437279]}}, {"id": "10", "type": "Feature", "properties": {"age": "Archaean", "comment": "2950 Ma", "commodities": ["Ag", "Zn", "Cu", "Pb", "Au"], "commodities_string": "Ag;Zn;Cu;Pb;Au", "id": 333296, "latitude": -20.84373003, "longitude": 117.83058340000001, "name": "Whim Creek"}, "geometry": {"type": "Point", "coordinates": [117.83058340000001, -20.84373003]}}, {"id": "11", "type": "Feature", "properties": {"age": "Archaean", "comment": "2900 Ma", "commodities": ["Ni", "Cu", "PGE", "Co"], "commodities_string": "Ni;Cu;PGE;Co", "id": 333298, "latitude": -20.91675888, "longitude": 116.88614299999999, "name": "Mount Sholl"}, "geometry": {"type": "Point", "coordinates": [116.88614299999999, -20.91675888]}}, {"id": "12", "type": "Feature", "properties": {"age": "Proterozoic", "comment": "nan", "commodities": ["Ag", "Au", "Cu"], "commodities_string": "Ag;Au;Cu", "id": 333299, "latitude": -18.91656851, "longitude": 144.9854956, "name": "Halls Reward"}, "geometry": {"type": "Point", "coordinates": [144.9854956, -18.91656851]}}, {"id": "13", "type": "Feature", "properties": {"age": "Devonian", "comment": "nan", "commodities": ["Ag", "Au", "Cu"], "commodities_string": "Ag;Au;Cu", "id": 333300, "latitude": -16.601604199999997, "longitude": 144.2461003, "name": "O.K."}, "geometry": {"type": "Point", "coordinates": [144.2461003, -16.601604199999997]}}, {"id": "14", "type": "Feature", "properties": {"age": "Ordovician", "comment": "450 Ma", "commodities": ["Ag", "Zn", "Cu", "Pb", "Au"], "commodities_string": "Ag;Zn;Cu;Pb;Au", "id": 333301, "latitude": -20.4095, "longitude": 146.0678, "name": "Liontown"}, "geometry": {"type": "Point", "coordinates": [146.0678, -20.4095]}}, {"id": "15", "type": "Feature", "properties": {"age": "unknown", "comment": "nan", "commodities": ["Cu"], "commodities_string": "Cu", "id": 333302, "latitude": -31.08606055, "longitude": 138.6757792, "name": "Blinman"}, "geometry": {"type": "Point", "coordinates": [138.6757792, -31.08606055]}}, {"id": "16", "type": "Feature", "properties": {"age": "Palaeozoic", "comment": "nan", "commodities": ["Au"], "commodities_string": "Au", "id": 333303, "latitude": -23.04091238, "longitude": 150.2585344, "name": "Canoona"}, "geometry": {"type": "Point", "coordinates": [150.2585344, -23.04091238]}}, {"id": "17", "type": "Feature", "properties": {"age": "Palaeoproterozoic", "comment": "nan", "commodities": ["Au"], "commodities_string": "Au", "id": 333304, "latitude": -13.2113, "longitude": 131.3731, "name": "Goodall"}, "geometry": {"type": "Point", "coordinates": [131.3731, -13.2113]}}, {"id": "18", "type": "Feature", "properties": {"age": "Proterozoic", "comment": "nan", "commodities": ["Cu"], "commodities_string": "Cu", "id": 333312, "latitude": -20.47303325, "longitude": 140.0680181, "name": "Copper Blonde"}, "geometry": {"type": "Point", "coordinates": [140.0680181, -20.47303325]}}, {"id": "19", "type": "Feature", "properties": {"age": "Proterozoic", "comment": "nan", "commodities": ["Cu"], "commodities_string": "Cu", "id": 333313, "latitude": -20.90055967, "longitude": 140.014198, "name": "Even Steven"}, "geometry": {"type": "Point", "coordinates": [140.014198, -20.90055967]}}, {"id": "20", "type": "Feature", "properties": {"age": "Proterozoic", "comment": "nan", "commodities": ["Cu"], "commodities_string": "Cu", "id": 333314, "latitude": -20.87855977, "longitude": 140.0061969, "name": "Springs"}, "geometry": {"type": "Point", "coordinates": [140.0061969, -20.87855977]}}, {"id": "21", "type": "Feature", "properties": {"age": "Proterozoic", "comment": "nan", "commodities": ["Au", "Cu"], "commodities_string": "Au;Cu", "id": 333315, "latitude": -20.17456404, "longitude": 139.9061887, "name": "Western"}, "geometry": {"type": "Point", "coordinates": [139.9061887, -20.17456404]}}, {"id": "22", "type": "Feature", "properties": {"age": "Late Carboniferous", "comment": "nan", "commodities": ["Au"], "commodities_string": "Au", "id": 333318, "latitude": -20.09694172, "longitude": 146.8829782, "name": "Nolans"}, "geometry": {"type": "Point", "coordinates": [146.8829782, -20.09694172]}}, {"id": "23", "type": "Feature", "properties": {"age": "Archean", "comment": "nan", "commodities": ["Au"], "commodities_string": "Au", "id": 333319, "latitude": -26.615, "longitude": 120.2467, "name": "Bulletin"}, "geometry": {"type": "Point", "coordinates": [120.2467, -26.615]}}, {"id": "24", "type": "Feature", "properties": {"age": "Archaean", "comment": "Resources are agglomerated by Barrick Gold corporation with those of the Granny Smith Project - See Granny Smith for the project figures.", "commodities": ["Au"], "commodities_string": "Au", "id": 333320, "latitude": -28.8518, "longitude": 122.3055, "name": "Wallaby"}, "geometry": {"type": "Point", "coordinates": [122.3055, -28.8518]}}, {"id": "25", "type": "Feature", "properties": {"age": null, "comment": "B4upd<10km(.8):-37 Km West South West Of Railway At Mundubbera;", "commodities": ["V", "Ti", "Fe"], "commodities_string": "V;Ti;Fe", "id": 333321, "latitude": -25.78808259, "longitude": 150.8528369, "name": "Hawkwood"}, "geometry": {"type": "Point", "coordinates": [150.8528369, -25.78808259]}}, {"id": "26", "type": "Feature", "properties": {"age": null, "comment": "nan", "commodities": ["Fe"], "commodities_string": "Fe", "id": 333322, "latitude": -20.58846427, "longitude": 120.33635859999998, "name": "Kennedy Gap"}, "geometry": {"type": "Point", "coordinates": [120.33635859999998, -20.58846427]}}, {"id": "27", "type": "Feature", "properties": {"age": "Archean", "comment": "nan", "commodities": ["Au"], "commodities_string": "Au", "id": 333323, "latitude": -30.495, "longitude": 120.6619, "name": "Iguana (South Ida Shear)"}, "geometry": {"type": "Point", "coordinates": [120.6619, -30.495]}}, {"id": "28", "type": "Feature", "properties": {"age": null, "comment": "B4upd<500m(19):-Deposit Located 130 Km Southeast Of Nullagine;", "commodities": ["Mn"], "commodities_string": "Mn", "id": 333324, "latitude": -22.77389419, "longitude": 120.8942814, "name": "Nicholas Downs"}, "geometry": {"type": "Point", "coordinates": [120.8942814, -22.77389419]}}, {"id": "29", "type": "Feature", "properties": {"age": null, "comment": "B4upd<500m(14):-Minloc", "commodities": ["Cu"], "commodities_string": "Cu", "id": 333325, "latitude": -17.18132953, "longitude": 137.7847882, "name": "Bluff"}, "geometry": {"type": "Point", "coordinates": [137.7847882, -17.18132953]}}, {"id": "30", "type": "Feature", "properties": {"age": null, "comment": "At Mount Madden, 120 Km Nw Of Mareeba.", "commodities": ["Au"], "commodities_string": "Au", "id": 333326, "latitude": -16.99548675, "longitude": 145.4344058, "name": "Mount Madden"}, "geometry": {"type": "Point", "coordinates": [145.4344058, -16.99548675]}}, {"id": "31", "type": "Feature", "properties": {"age": null, "comment": "nan", "commodities": ["Au"], "commodities_string": "Au", "id": 333327, "latitude": -29.436065600000003, "longitude": 122.46472109999999, "name": "Kangaroo Bore"}, "geometry": {"type": "Point", "coordinates": [122.46472109999999, -29.436065600000003]}}, {"id": "32", "type": "Feature", "properties": {"age": null, "comment": "B4upd<500m(5):-Deposit Located Northeast Of Ora Banda;", "commodities": ["Ni"], "commodities_string": "Ni", "id": 333328, "latitude": -31.18225534, "longitude": 121.457035, "name": "East Scotia"}, "geometry": {"type": "Point", "coordinates": [121.457035, -31.18225534]}}, {"id": "33", "type": "Feature", "properties": {"age": null, "comment": "Minmet Lats & Longs; At Eaglehawk", "commodities": ["Au"], "commodities_string": "Au", "id": 333329, "latitude": -36.72881441, "longitude": 144.251326, "name": "York & Durham"}, "geometry": {"type": "Point", "coordinates": [144.251326, -36.72881441]}}, {"id": "34", "type": "Feature", "properties": {"age": null, "comment": "B4upd<10km(.6):-", "commodities": ["Au"], "commodities_string": "Au", "id": 333330, "latitude": -31.55174122, "longitude": 121.74035420000001, "name": "Duke"}, "geometry": {"type": "Point", "coordinates": [121.74035420000001, -31.55174122]}}, {"id": "35", "type": "Feature", "properties": {"age": null, "comment": "B4upd<10km(.7):-85km Wnw Of Mt Garnet. Geological Survey Of Queensland Record 1987/29. Location Is Unsure Of.", "commodities": ["Sn"], "commodities_string": "Sn", "id": 333331, "latitude": -17.45159229, "longitude": 144.33100819999999, "name": "Tate River"}, "geometry": {"type": "Point", "coordinates": [144.33100819999999, -17.45159229]}}, {"id": "36", "type": "Feature", "properties": {"age": "Archean", "comment": "nan", "commodities": ["Au"], "commodities_string": "Au", "id": 333335, "latitude": -27.5148, "longitude": 120.9409, "name": "Success - Mt McClure"}, "geometry": {"type": "Point", "coordinates": [120.9409, -27.5148]}}, {"id": "37", "type": "Feature", "properties": {"age": null, "comment": "nan", "commodities": ["Au"], "commodities_string": "Au", "id": 333336, "latitude": -16.57680045, "longitude": 144.6048905, "name": "Hurricane"}, "geometry": {"type": "Point", "coordinates": [144.6048905, -16.57680045]}}, {"id": "38", "type": "Feature", "properties": {"age": "Archean", "comment": "Centroid Of Plan View Of Orebody Based On Mine Grid; Accuracy 11 To 50 Metres;", "commodities": ["Au"], "commodities_string": "Au", "id": 333337, "latitude": -31.2131, "longitude": 122.5764, "name": "French Kiss"}, "geometry": {"type": "Point", "coordinates": [122.5764, -31.2131]}}, {"id": "39", "type": "Feature", "properties": {"age": null, "comment": "Located In The Flinders Ranges", "commodities": ["Fe"], "commodities_string": "Fe", "id": 333339, "latitude": -31.34561586, "longitude": 138.03463469999997, "name": "Donnellys Comstock"}, "geometry": {"type": "Point", "coordinates": [138.03463469999997, -31.34561586]}}, {"id": "40", "type": "Feature", "properties": {"age": "Archean", "comment": "nan", "commodities": ["Au"], "commodities_string": "Au", "id": 333340, "latitude": -28.3414, "longitude": 121.1823, "name": "Wonder North"}, "geometry": {"type": "Point", "coordinates": [121.1823, -28.3414]}}, {"id": "41", "type": "Feature", "properties": {"age": null, "comment": "nan", "commodities": ["Zn", "Cu"], "commodities_string": "Zn;Cu", "id": 333342, "latitude": -18.4366, "longitude": 127.3087, "name": "Emull"}, "geometry": {"type": "Point", "coordinates": [127.3087, -18.4366]}}, {"id": "42", "type": "Feature", "properties": {"age": null, "comment": "Prospect Occurs Within A Single Mining Lease (M80/40), 28 Km South Of Turkey Creek.", "commodities": ["REE"], "commodities_string": "REE", "id": 333344, "latitude": -17.34580354, "longitude": 128.2012906, "name": "John Galt"}, "geometry": {"type": "Point", "coordinates": [128.2012906, -17.34580354]}}, {"id": "43", "type": "Feature", "properties": {"age": null, "comment": "nan", "commodities": ["Ag", "Au"], "commodities_string": "Ag;Au", "id": 333345, "latitude": -17.6601, "longitude": 145.0752, "name": "Triple Crown"}, "geometry": {"type": "Point", "coordinates": [145.0752, -17.6601]}}, {"id": "44", "type": "Feature", "properties": {"age": "Archean", "comment": "nan", "commodities": ["Au"], "commodities_string": "Au", "id": 333346, "latitude": -30.8256, "longitude": 121.3919, "name": "Navajo Chief"}, "geometry": {"type": "Point", "coordinates": [121.3919, -30.8256]}}, {"id": "45", "type": "Feature", "properties": {"age": null, "comment": "nan", "commodities": ["Ag", "Au"], "commodities_string": "Ag;Au", "id": 333347, "latitude": -20.09535832, "longitude": 146.7848746, "name": "Podosky's Prospect"}, "geometry": {"type": "Point", "coordinates": [146.7848746, -20.09535832]}}, {"id": "46", "type": "Feature", "properties": {"age": null, "comment": "Minloc Location", "commodities": ["Au"], "commodities_string": "Au", "id": 333349, "latitude": -14.08102993, "longitude": 131.9634449, "name": "Woolgni"}, "geometry": {"type": "Point", "coordinates": [131.9634449, -14.08102993]}}, {"id": "47", "type": "Feature", "properties": {"age": null, "comment": "Abednego Nickel Project Is Adjacent To Murrin Murrin 8 & 9 Ore Zone. Project Acquired By Anaconda Nickel Limited In Early 1999. 60 kms NE of Leonora. Resources fully integrated with Murrin Murrin\nCo-Ordinates according from Minedex based on Abednego deposit", "commodities": ["Ni", "Co"], "commodities_string": "Ni;Co", "id": 333352, "latitude": -28.78172229, "longitude": 121.85471640000002, "name": "Abednego"}, "geometry": {"type": "Point", "coordinates": [121.85471640000002, -28.78172229]}}, {"id": "48", "type": "Feature", "properties": {"age": null, "comment": "nan", "commodities": ["Au"], "commodities_string": "Au", "id": 333353, "latitude": -28.83537186, "longitude": 118.8067602, "name": "Youangarra"}, "geometry": {"type": "Point", "coordinates": [118.8067602, -28.83537186]}}, {"id": "49", "type": "Feature", "properties": {"age": null, "comment": "North Of Mildura", "commodities": ["REE", "Ti", "Th", "Zr"], "commodities_string": "REE;Ti;Th;Zr", "id": 333354, "latitude": -33.45700732, "longitude": 142.32997790000002, "name": "Gallipoli"}, "geometry": {"type": "Point", "coordinates": [142.32997790000002, -33.45700732]}}, {"id": "50", "type": "Feature", "properties": {"age": null, "comment": "nan", "commodities": ["W", "Sn"], "commodities_string": "W;Sn", "id": 333355, "latitude": -16.60769405, "longitude": 145.2246744, "name": "Station Creek"}, "geometry": {"type": "Point", "coordinates": [145.2246744, -16.60769405]}}, {"id": "51", "type": "Feature", "properties": {"age": null, "comment": "Location From Gazetter Of Australia.", "commodities": ["Fe"], "commodities_string": "Fe", "id": 333356, "latitude": -34.59572836, "longitude": 135.7713832, "name": "Greenpatch Magnetite -  (Centrex)"}, "geometry": {"type": "Point", "coordinates": [135.7713832, -34.59572836]}}, {"id": "52", "type": "Feature", "properties": {"age": null, "comment": "nan", "commodities": ["Mn"], "commodities_string": "Mn", "id": 333357, "latitude": -28.779007, "longitude": 122.515001, "name": "Laverton - Mount Lucky"}, "geometry": {"type": "Point", "coordinates": [122.515001, -28.779007]}}, {"id": "53", "type": "Feature", "properties": {"age": null, "comment": "Deposit location coincides with the Trapper zone. All zones are undeveloped at this stage. There are about 5 zones that constitute constitute Alchemy Res. Ltd's Hermes deposit, Trapper being the most significant. This was Troy Resources Three Rivers Project.", "commodities": ["Au"], "commodities_string": "Au", "id": 333359, "latitude": -25.5845, "longitude": 118.9098, "name": "Hermes"}, "geometry": {"type": "Point", "coordinates": [118.9098, -25.5845]}}, {"id": "54", "type": "Feature", "properties": {"age": null, "comment": "nan", "commodities": ["Au"], "commodities_string": "Au", "id": 333361, "latitude": -37.04853825, "longitude": 142.76934719999997, "name": "Manchester Reef"}, "geometry": {"type": "Point", "coordinates": [142.76934719999997, -37.04853825]}}, {"id": "55", "type": "Feature", "properties": {"age": "Devonian", "comment": "nan", "commodities": ["Au", "Sb"], "commodities_string": "Au;Sb", "id": 333362, "latitude": -36.8936, "longitude": 144.80100000000002, "name": "Costerfield Mh Zone"}, "geometry": {"type": "Point", "coordinates": [144.80100000000002, -36.8936]}}, {"id": "56", "type": "Feature", "properties": {"age": null, "comment": "Part of Wallbrook project", "commodities": ["Au"], "commodities_string": "Au", "id": 333364, "latitude": -29.858093, "longitude": 122.310349, "name": "Crusader"}, "geometry": {"type": "Point", "coordinates": [122.310349, -29.858093]}}, {"id": "57", "type": "Feature", "properties": {"age": null, "comment": "nan", "commodities": ["Au"], "commodities_string": "Au", "id": 333365, "latitude": -32.43013, "longitude": 119.687576, "name": "Lounge Lizard"}, "geometry": {"type": "Point", "coordinates": [119.687576, -32.43013]}}, {"id": "58", "type": "Feature", "properties": {"age": null, "comment": "Part of Northcote project", "commodities": ["Au"], "commodities_string": "Au", "id": 333366, "latitude": -16.995711, "longitude": 145.196383, "name": "East Leadingham"}, "geometry": {"type": "Point", "coordinates": [145.196383, -16.995711]}}, {"id": "59", "type": "Feature", "properties": {"age": null, "comment": "nan", "commodities": ["Au"], "commodities_string": "Au", "id": 333367, "latitude": -29.494707000000002, "longitude": 121.923427, "name": "McAuliffe Well"}, "geometry": {"type": "Point", "coordinates": [121.923427, -29.494707000000002]}}, {"id": "60", "type": "Feature", "properties": {"age": null, "comment": "Owned by Cable Sands, resources are confidential", "commodities": ["Ti", "Zr"], "commodities_string": "Ti;Zr", "id": 333368, "latitude": -33.872894, "longitude": 120.79061899999999, "name": "Oldfield Inlet"}, "geometry": {"type": "Point", "coordinates": [120.79061899999999, -33.872894]}}, {"id": "61", "type": "Feature", "properties": {"age": null, "comment": "operated by Bemax in 2006", "commodities": ["Ti", "Zr"], "commodities_string": "Ti;Zr", "id": 333369, "latitude": -33.589615, "longitude": 115.488983, "name": "Ludlow"}, "geometry": {"type": "Point", "coordinates": [115.488983, -33.589615]}}, {"id": "62", "type": "Feature", "properties": {"age": "unknown", "comment": "nan", "commodities": ["Cu"], "commodities_string": "Cu", "id": 333370, "latitude": -17.67362565, "longitude": 137.8531926, "name": "Norris"}, "geometry": {"type": "Point", "coordinates": [137.8531926, -17.67362565]}}, {"id": "63", "type": "Feature", "properties": {"age": "Archean", "comment": "nan", "commodities": ["Au", "Cu"], "commodities_string": "Au;Cu", "id": 333372, "latitude": -33.6789, "longitude": 120.1983, "name": "Harbour View North - Kundip"}, "geometry": {"type": "Point", "coordinates": [120.1983, -33.6789]}}, {"id": "64", "type": "Feature", "properties": {"age": null, "comment": "Coordinates Given Are For The Town Of Mittagong;", "commodities": ["Fe"], "commodities_string": "Fe", "id": 333373, "latitude": -34.44528452, "longitude": 150.4511671, "name": "Mittagong-Picton"}, "geometry": {"type": "Point", "coordinates": [150.4511671, -34.44528452]}}, {"id": "65", "type": "Feature", "properties": {"age": null, "comment": "nan", "commodities": ["REE", "Ti", "Th", "Zr"], "commodities_string": "REE;Ti;Th;Zr", "id": 333374, "latitude": -32.769042999999996, "longitude": 115.93923999999998, "name": "Coolup"}, "geometry": {"type": "Point", "coordinates": [115.93923999999998, -32.769042999999996]}}, {"id": "66", "type": "Feature", "properties": {"age": null, "comment": "nan", "commodities": ["Au"], "commodities_string": "Au", "id": 333375, "latitude": -35.97862975, "longitude": 150.1012125, "name": "Bergalia"}, "geometry": {"type": "Point", "coordinates": [150.1012125, -35.97862975]}}, {"id": "67", "type": "Feature", "properties": {"age": null, "comment": "nan", "commodities": ["Au"], "commodities_string": "Au", "id": 333376, "latitude": -27.819214000000002, "longitude": 120.56109599999999, "name": "Maria"}, "geometry": {"type": "Point", "coordinates": [120.56109599999999, -27.819214000000002]}}, {"id": "68", "type": "Feature", "properties": {"age": "Archean", "comment": "nan", "commodities": ["Au"], "commodities_string": "Au", "id": 333377, "latitude": -27.0708, "longitude": 118.4337, "name": "Banderol"}, "geometry": {"type": "Point", "coordinates": [118.4337, -27.0708]}}, {"id": "69", "type": "Feature", "properties": {"age": null, "comment": "nan", "commodities": ["Au"], "commodities_string": "Au", "id": 333378, "latitude": -29.681729999999998, "longitude": 122.1566, "name": "Golden Rainbow"}, "geometry": {"type": "Point", "coordinates": [122.1566, -29.681729999999998]}}, {"id": "70", "type": "Feature", "properties": {"age": "Archaean", "comment": "See A1 Minerals 'Bright Star Delta' Deposit. Mineralisation occurs at Delta1 (Cork Tree Well), Delta North, New North, Paleochannels, and Delta2.", "commodities": ["Au"], "commodities_string": "Au", "id": 333380, "latitude": -28.3386, "longitude": 122.4044, "name": "Cork Tree Well"}, "geometry": {"type": "Point", "coordinates": [122.4044, -28.3386]}}, {"id": "71", "type": "Feature", "properties": {"age": "Proterozoic", "comment": "nan", "commodities": ["Ag", "Au"], "commodities_string": "Ag;Au", "id": 333381, "latitude": -13.82566225, "longitude": 131.82871770000003, "name": "Pine Creek"}, "geometry": {"type": "Point", "coordinates": [131.82871770000003, -13.82566225]}}, {"id": "72", "type": "Feature", "properties": {"age": "Palaeozoic", "comment": "nan", "commodities": ["Au"], "commodities_string": "Au", "id": 333382, "latitude": -33.37989232, "longitude": 148.0159886, "name": "Forbes"}, "geometry": {"type": "Point", "coordinates": [148.0159886, -33.37989232]}}, {"id": "73", "type": "Feature", "properties": {"age": "Triassic", "comment": "nan", "commodities": ["Au"], "commodities_string": "Au", "id": 333384, "latitude": -26.07683214, "longitude": 152.1699719, "name": "Kilkivan"}, "geometry": {"type": "Point", "coordinates": [152.1699719, -26.07683214]}}, {"id": "74", "type": "Feature", "properties": {"age": "Permian", "comment": "279+-3 Ma", "commodities": ["W", "Sn"], "commodities_string": "W;Sn", "id": 333386, "latitude": -16.51829604, "longitude": 145.1318752, "name": "Mount Carbine"}, "geometry": {"type": "Point", "coordinates": [145.1318752, -16.51829604]}}, {"id": "75", "type": "Feature", "properties": {"age": "Archaean", "comment": "2927 \u00b1 13 Ma - Sm-Nd isochron age of mineral separates for samples from PGE-bearing porphyritic websterite layer and gabbroic zone. See Hoatson and Sun (2002) - Economic Geology 97, p. 847-892.\n2925 \u00b1 16 Ma - Ferrogabbro pegmatite near contact of ultramafic-gabbroic zone is interpreted to be coeval with layered stratigraphy of intrusion. See Arndt et al. (1991) - Australian Journal of Earth Sciences 38, p. 261-281.\nAlso see references #572 and #1755.\n\n\n", "commodities": ["Ni", "Au", "Cu", "PGE"], "commodities_string": "Ni;Au;Cu;PGE", "id": 333387, "latitude": -21.11736634, "longitude": 116.85003490000001, "name": "Munni Munni"}, "geometry": {"type": "Point", "coordinates": [116.85003490000001, -21.11736634]}}, {"id": "76", "type": "Feature", "properties": {"age": "Proterozoic", "comment": "1550 - 1650 Ma ?", "commodities": ["U"], "commodities_string": "U", "id": 333388, "latitude": -12.67353859, "longitude": 132.9184626, "name": "Ranger"}, "geometry": {"type": "Point", "coordinates": [132.9184626, -12.67353859]}}, {"id": "77", "type": "Feature", "properties": {"age": "Proterozoic", "comment": "nan", "commodities": ["Au"], "commodities_string": "Au", "id": 333390, "latitude": -30.69713548, "longitude": 134.52998200000002, "name": "Tarcoola"}, "geometry": {"type": "Point", "coordinates": [134.52998200000002, -30.69713548]}}, {"id": "78", "type": "Feature", "properties": {"age": "Palaeoproterozoic", "comment": "1830 Ma", "commodities": ["Ag", "Au", "Cu"], "commodities_string": "Ag;Au;Cu", "id": 333391, "latitude": -19.62710875, "longitude": 134.1500106, "name": "TC8"}, "geometry": {"type": "Point", "coordinates": [134.1500106, -19.62710875]}}, {"id": "79", "type": "Feature", "properties": {"age": "Archaean", "comment": "nan", "commodities": ["Ag", "Au"], "commodities_string": "Ag;Au", "id": 333392, "latitude": -28.8976, "longitude": 121.3228, "name": "Tower Hill"}, "geometry": {"type": "Point", "coordinates": [121.3228, -28.8976]}}, {"id": "80", "type": "Feature", "properties": {"age": "Palaeozoic", "comment": "nan", "commodities": ["Zn", "Pb"], "commodities_string": "Zn;Pb", "id": 333393, "latitude": -17.17365405, "longitude": 124.62802009999999, "name": "Wagon Pass"}, "geometry": {"type": "Point", "coordinates": [124.62802009999999, -17.17365405]}}, {"id": "81", "type": "Feature", "properties": {"age": "Proterozoic", "comment": "nan", "commodities": ["Ni", "Co"], "commodities_string": "Ni;Co", "id": 333395, "latitude": -21.73602667, "longitude": 140.49101389999998, "name": "Mount Cobalt"}, "geometry": {"type": "Point", "coordinates": [140.49101389999998, -21.73602667]}}, {"id": "82", "type": "Feature", "properties": {"age": "Proterozoic", "comment": "Mined out", "commodities": ["Au"], "commodities_string": "Au", "id": 333396, "latitude": -21.64893085, "longitude": 139.92562, "name": "Tick Hill"}, "geometry": {"type": "Point", "coordinates": [139.92562, -21.64893085]}}, {"id": "83", "type": "Feature", "properties": {"age": "Permian", "comment": "nan", "commodities": ["Ag", "Au", "Cu"], "commodities_string": "Ag;Au;Cu", "id": 333397, "latitude": -25.18447038, "longitude": 151.7060267, "name": "Mount Perry"}, "geometry": {"type": "Point", "coordinates": [151.7060267, -25.18447038]}}, {"id": "84", "type": "Feature", "properties": {"age": "Carboniferous", "comment": "nan", "commodities": ["Sn"], "commodities_string": "Sn", "id": 333399, "latitude": -17.5318846, "longitude": 144.9276927, "name": "Gilmore"}, "geometry": {"type": "Point", "coordinates": [144.9276927, -17.5318846]}}, {"id": "85", "type": "Feature", "properties": {"age": "Palaeoproterozoic", "comment": "nan", "commodities": ["Cu", "Co"], "commodities_string": "Cu;Co", "id": 333400, "latitude": -20.74339211, "longitude": 139.4783449, "name": "Mount Isa (Cu orebodies)"}, "geometry": {"type": "Point", "coordinates": [139.4783449, -20.74339211]}}, {"id": "86", "type": "Feature", "properties": {"age": "Late Ordovician", "comment": "nan", "commodities": ["Au"], "commodities_string": "Au", "id": 333401, "latitude": -37.2469903, "longitude": 144.3660131, "name": "Lauriston Goldfield"}, "geometry": {"type": "Point", "coordinates": [144.3660131, -37.2469903]}}, {"id": "87", "type": "Feature", "properties": {"age": "Early Devonian", "comment": "nan", "commodities": ["Cu"], "commodities_string": "Cu", "id": 333402, "latitude": -32.88099542, "longitude": 145.85892819999998, "name": "Great Central-Comet"}, "geometry": {"type": "Point", "coordinates": [145.85892819999998, -32.88099542]}}, {"id": "88", "type": "Feature", "properties": {"age": "Silurian", "comment": "nan", "commodities": ["Ag", "Zn", "Cu", "Pb", "Au"], "commodities_string": "Ag;Zn;Cu;Pb;Au", "id": 333403, "latitude": -33.26131325, "longitude": 149.26717230000003, "name": "Lewis Ponds"}, "geometry": {"type": "Point", "coordinates": [149.26717230000003, -33.26131325]}}, {"id": "89", "type": "Feature", "properties": {"age": "Palaeoproterozoic", "comment": "about 1690 Ma", "commodities": ["Ag", "Zn", "Pb"], "commodities_string": "Ag;Zn;Pb", "id": 333404, "latitude": -31.9317, "longitude": 141.5013, "name": "Potosi"}, "geometry": {"type": "Point", "coordinates": [141.5013, -31.9317]}}, {"id": "90", "type": "Feature", "properties": {"age": "Proterozoic", "comment": "nan", "commodities": ["Cu"], "commodities_string": "Cu", "id": 333406, "latitude": -20.90555992, "longitude": 139.9751985, "name": "Amy"}, "geometry": {"type": "Point", "coordinates": [139.9751985, -20.90555992]}}, {"id": "91", "type": "Feature", "properties": {"age": "Proterozoic", "comment": "nan", "commodities": ["Cu"], "commodities_string": "Cu", "id": 333407, "latitude": -20.81556204, "longitude": 139.8402004, "name": "Edna May"}, "geometry": {"type": "Point", "coordinates": [139.8402004, -20.81556204]}}, {"id": "92", "type": "Feature", "properties": {"age": "Proterozoic", "comment": "nan", "commodities": ["Cu"], "commodities_string": "Cu", "id": 333409, "latitude": -19.36459041, "longitude": 139.0851874, "name": "O.P."}, "geometry": {"type": "Point", "coordinates": [139.0851874, -19.36459041]}}, {"id": "93", "type": "Feature", "properties": {"age": "Proterozoic", "comment": "nan", "commodities": ["Cu"], "commodities_string": "Cu", "id": 333410, "latitude": -21.77602673, "longitude": 140.4720144, "name": "Stuart"}, "geometry": {"type": "Point", "coordinates": [140.4720144, -21.77602673]}}, {"id": "94", "type": "Feature", "properties": {"age": "Proterozoic", "comment": "nan", "commodities": ["Ag", "Au", "Cu"], "commodities_string": "Ag;Au;Cu", "id": 333411, "latitude": -21.47795731, "longitude": 139.9030999, "name": "Trekelano"}, "geometry": {"type": "Point", "coordinates": [139.9030999, -21.47795731]}}, {"id": "95", "type": "Feature", "properties": {"age": "Palaeozoic", "comment": "probably Siluro-Devonian; ref *11698", "commodities": ["Ag", "Au", "Pb"], "commodities_string": "Ag;Au;Pb", "id": 333413, "latitude": -18.28610021, "longitude": 143.4742095, "name": "Durham"}, "geometry": {"type": "Point", "coordinates": [143.4742095, -18.28610021]}}, {"id": "96", "type": "Feature", "properties": {"age": "Pliocene", "comment": "nan", "commodities": ["REE", "Ti", "Th", "Zr"], "commodities_string": "REE;Ti;Th;Zr", "id": 333415, "latitude": -33.13064, "longitude": 141.34436000000002, "name": "Massidon"}, "geometry": {"type": "Point", "coordinates": [141.34436000000002, -33.13064]}}, {"id": "97", "type": "Feature", "properties": {"age": "Archaean", "comment": "nan", "commodities": ["Au"], "commodities_string": "Au", "id": 333417, "latitude": -27.4867, "longitude": 118.1168, "name": "Tuckabianna Project"}, "geometry": {"type": "Point", "coordinates": [118.1168, -27.4867]}}, {"id": "98", "type": "Feature", "properties": {"age": "Archaean", "comment": "nan", "commodities": ["Au"], "commodities_string": "Au", "id": 333418, "latitude": -29.2166, "longitude": 122.4141, "name": "Red October"}, "geometry": {"type": "Point", "coordinates": [122.4141, -29.2166]}}, {"id": "99", "type": "Feature", "properties": {"age": "Archaean", "comment": "2660-2620Ma", "commodities": ["Au"], "commodities_string": "Au", "id": 333419, "latitude": -31.31673686, "longitude": 121.77564640000001, "name": "Santa Ana"}, "geometry": {"type": "Point", "coordinates": [121.77564640000001, -31.31673686]}}, {"id": "100", "type": "Feature", "properties": {"age": "Archaean", "comment": "Deposit consists of the Alpha and Phi lodes", "commodities": ["Au"], "commodities_string": "Au", "id": 333420, "latitude": -30.1883, "longitude": 121.2328, "name": "Aphrodite"}, "geometry": {"type": "Point", "coordinates": [121.2328, -30.1883]}}, {"id": "101", "type": "Feature", "properties": {"age": null, "comment": "nan", "commodities": ["Au"], "commodities_string": "Au", "id": 333425, "latitude": -37.18590843, "longitude": 148.8826179, "name": "Bendoc"}, "geometry": {"type": "Point", "coordinates": [148.8826179, -37.18590843]}}, {"id": "102", "type": "Feature", "properties": {"age": null, "comment": "Coordinates Are For Goulburn Population Centre", "commodities": ["Fe"], "commodities_string": "Fe", "id": 333426, "latitude": -34.74531007, "longitude": 149.7178471, "name": "Goulburn"}, "geometry": {"type": "Point", "coordinates": [149.7178471, -34.74531007]}}, {"id": "103", "type": "Feature", "properties": {"age": null, "comment": "nan", "commodities": ["Mn"], "commodities_string": "Mn", "id": 333427, "latitude": -22.085279999999997, "longitude": 120.90348, "name": "Bee Hill"}, "geometry": {"type": "Point", "coordinates": [120.90348, -22.085279999999997]}}, {"id": "104", "type": "Feature", "properties": {"age": null, "comment": "B4upd<10km(1.8):-Leases Encompassing The Old Burraga Copper Mine, 80km South Of Bathurst In Nsw.", "commodities": ["Zn", "Cu"], "commodities_string": "Zn;Cu", "id": 333428, "latitude": -33.96161159, "longitude": 149.5353792, "name": "Burraga"}, "geometry": {"type": "Point", "coordinates": [149.5353792, -33.96161159]}}, {"id": "105", "type": "Feature", "properties": {"age": null, "comment": "80 Km West Of Grafton On Nsw'S North Coast.", "commodities": ["Au"], "commodities_string": "Au", "id": 333429, "latitude": -29.91189856, "longitude": 152.44411780000001, "name": "Dalmorton"}, "geometry": {"type": "Point", "coordinates": [152.44411780000001, -29.91189856]}}, {"id": "106", "type": "Feature", "properties": {"age": null, "comment": "nan", "commodities": ["Au"], "commodities_string": "Au", "id": 333430, "latitude": -18.29272073, "longitude": 143.55055149999998, "name": "Georgetown"}, "geometry": {"type": "Point", "coordinates": [143.55055149999998, -18.29272073]}}, {"id": "107", "type": "Feature", "properties": {"age": null, "comment": "Centroid Of Plan View Of Orebody From 1:10 000 Geological Map; Accuracy 251-500 Metres;\nWoolgar Project.", "commodities": ["U", "Au"], "commodities_string": "U;Au", "id": 333431, "latitude": -19.77632271, "longitude": 143.38918059999997, "name": "Lost World"}, "geometry": {"type": "Point", "coordinates": [143.38918059999997, -19.77632271]}}, {"id": "108", "type": "Feature", "properties": {"age": null, "comment": "nan", "commodities": ["Au"], "commodities_string": "Au", "id": 333432, "latitude": -36.71908659, "longitude": 144.5054839, "name": "Harringtons Hill"}, "geometry": {"type": "Point", "coordinates": [144.5054839, -36.71908659]}}, {"id": "109", "type": "Feature", "properties": {"age": null, "comment": "nan", "commodities": ["Fe"], "commodities_string": "Fe", "id": 333433, "latitude": -26.05396151, "longitude": 117.23973219999999, "name": "Mount Hale"}, "geometry": {"type": "Point", "coordinates": [117.23973219999999, -26.05396151]}}, {"id": "110", "type": "Feature", "properties": {"age": null, "comment": "nan", "commodities": ["Au"], "commodities_string": "Au", "id": 333434, "latitude": -27.10227033, "longitude": 118.08423619999999, "name": "Maybelle North"}, "geometry": {"type": "Point", "coordinates": [118.08423619999999, -27.10227033]}}, {"id": "111", "type": "Feature", "properties": {"age": null, "comment": "nan", "commodities": ["Au"], "commodities_string": "Au", "id": 333439, "latitude": -21.08930888, "longitude": 118.90167779999999, "name": "Zakanaka"}, "geometry": {"type": "Point", "coordinates": [118.90167779999999, -21.08930888]}}, {"id": "112", "type": "Feature", "properties": {"age": null, "comment": "nan", "commodities": ["Au"], "commodities_string": "Au", "id": 333440, "latitude": -28.934, "longitude": 121.4194, "name": "Leonardo"}, "geometry": {"type": "Point", "coordinates": [121.4194, -28.934]}}, {"id": "113", "type": "Feature", "properties": {"age": null, "comment": "nan", "commodities": ["Au"], "commodities_string": "Au", "id": 333441, "latitude": -28.63631808, "longitude": 121.9656229, "name": "Mount Korong"}, "geometry": {"type": "Point", "coordinates": [121.9656229, -28.63631808]}}, {"id": "114", "type": "Feature", "properties": {"age": null, "comment": "nan", "commodities": ["Au"], "commodities_string": "Au", "id": 333442, "latitude": -37.08666649, "longitude": 143.74652700000001, "name": "Long Gully"}, "geometry": {"type": "Point", "coordinates": [143.74652700000001, -37.08666649]}}, {"id": "115", "type": "Feature", "properties": {"age": null, "comment": "nan", "commodities": ["Sn"], "commodities_string": "Sn", "id": 333443, "latitude": -13.31014285, "longitude": 143.0025035, "name": "Wolverton"}, "geometry": {"type": "Point", "coordinates": [143.0025035, -13.31014285]}}, {"id": "116", "type": "Feature", "properties": {"age": "Archean", "comment": "Any 2012 resources are reported in the agglomerated figures for the Tindals Project.", "commodities": ["Au"], "commodities_string": "Au", "id": 333444, "latitude": -30.9895, "longitude": 121.1707, "name": "Empress/Alicia"}, "geometry": {"type": "Point", "coordinates": [121.1707, -30.9895]}}, {"id": "117", "type": "Feature", "properties": {"age": "Archean", "comment": "The deposit is part of Westgold Resources Cuddingwarra project.", "commodities": ["Au"], "commodities_string": "Au", "id": 333449, "latitude": -27.3686, "longitude": 117.8015, "name": "Golden Gate - Cuddingwarra"}, "geometry": {"type": "Point", "coordinates": [117.8015, -27.3686]}}, {"id": "118", "type": "Feature", "properties": {"age": null, "comment": "nan", "commodities": ["Au"], "commodities_string": "Au", "id": 333450, "latitude": -37.20572835, "longitude": 143.98559330000003, "name": "Bosuns"}, "geometry": {"type": "Point", "coordinates": [143.98559330000003, -37.20572835]}}, {"id": "119", "type": "Feature", "properties": {"age": null, "comment": "nan", "commodities": ["Ag", "Au", "Cu", "Zn"], "commodities_string": "Ag;Au;Cu;Zn", "id": 333452, "latitude": -20.08454574, "longitude": 146.88795109999998, "name": "Copper Knob"}, "geometry": {"type": "Point", "coordinates": [146.88795109999998, -20.08454574]}}, {"id": "120", "type": "Feature", "properties": {"age": null, "comment": "Centroid Of Plan View Of Orebody Located From 1:10 000 Geological Sheet; Accuracy 251 To 500 Metres;", "commodities": ["Au"], "commodities_string": "Au", "id": 333453, "latitude": -19.78937864, "longitude": 143.39195759999998, "name": "Explorer"}, "geometry": {"type": "Point", "coordinates": [143.39195759999998, -19.78937864]}}, {"id": "121", "type": "Feature", "properties": {"age": null, "comment": "nan", "commodities": ["Au"], "commodities_string": "Au", "id": 333456, "latitude": -43.04459957, "longitude": 146.7344879, "name": "Forster"}, "geometry": {"type": "Point", "coordinates": [146.7344879, -43.04459957]}}, {"id": "122", "type": "Feature", "properties": {"age": null, "comment": "32 Km South Of Charters Towers In North Queensland.", "commodities": ["Au"], "commodities_string": "Au", "id": 333457, "latitude": -20.07876757, "longitude": 146.2677418, "name": "Merriland"}, "geometry": {"type": "Point", "coordinates": [146.2677418, -20.07876757]}}, {"id": "123", "type": "Feature", "properties": {"age": "Archean", "comment": "Davyhurst Mill", "commodities": ["Au"], "commodities_string": "Au", "id": 333458, "latitude": -29.881, "longitude": 120.5285, "name": "Giles"}, "geometry": {"type": "Point", "coordinates": [120.5285, -29.881]}}, {"id": "124", "type": "Feature", "properties": {"age": null, "comment": "nan", "commodities": ["Au"], "commodities_string": "Au", "id": 333459, "latitude": -28.59365775, "longitude": 118.8183538, "name": "Commonwealth"}, "geometry": {"type": "Point", "coordinates": [118.8183538, -28.59365775]}}, {"id": "125", "type": "Feature", "properties": {"age": null, "comment": "nan", "commodities": ["Au"], "commodities_string": "Au", "id": 333460, "latitude": -36.6669, "longitude": 144.5097, "name": "Sharkeys Open Pit"}, "geometry": {"type": "Point", "coordinates": [144.5097, -36.6669]}}, {"id": "126", "type": "Feature", "properties": {"age": "Archean", "comment": "Part of Gidgee project", "commodities": ["Au"], "commodities_string": "Au", "id": 333463, "latitude": -27.0305, "longitude": 119.3819, "name": "Snook North"}, "geometry": {"type": "Point", "coordinates": [119.3819, -27.0305]}}, {"id": "127", "type": "Feature", "properties": {"age": "Archean", "comment": "Part of Gidgee project", "commodities": ["Au"], "commodities_string": "Au", "id": 333464, "latitude": -27.3797, "longitude": 119.4626, "name": "Heron South"}, "geometry": {"type": "Point", "coordinates": [119.4626, -27.3797]}}, {"id": "128", "type": "Feature", "properties": {"age": "Archean", "comment": "Part of the Katanning Project in which Ausgold is acquiring 80% equity.", "commodities": ["Au"], "commodities_string": "Au", "id": 333465, "latitude": -33.5418, "longitude": 117.9037, "name": "White Dam - Katanning"}, "geometry": {"type": "Point", "coordinates": [117.9037, -33.5418]}}, {"id": "129", "type": "Feature", "properties": {"age": null, "comment": "Part of the Gwindinup project of Cable Sands", "commodities": ["REE", "Ti", "Th", "Zr"], "commodities_string": "REE;Ti;Th;Zr", "id": 333466, "latitude": -33.697113, "longitude": 115.582321, "name": "Happy Valley South"}, "geometry": {"type": "Point", "coordinates": [115.582321, -33.697113]}}, {"id": "130", "type": "Feature", "properties": {"age": null, "comment": "Undeveloped deposit owned by Cable Sands", "commodities": ["Ti", "Zr"], "commodities_string": "Ti;Zr", "id": 333467, "latitude": -33.575455, "longitude": 115.46064799999999, "name": "Forrest Beach"}, "geometry": {"type": "Point", "coordinates": [115.46064799999999, -33.575455]}}, {"id": "131", "type": "Feature", "properties": {"age": null, "comment": "Operating mine South of Waroona", "commodities": ["Ti", "Zr"], "commodities_string": "Ti;Zr", "id": 333468, "latitude": -32.887634000000006, "longitude": 115.923126, "name": "Waroona South (Cable)"}, "geometry": {"type": "Point", "coordinates": [115.923126, -32.887634000000006]}}, {"id": "132", "type": "Feature", "properties": {"age": null, "comment": "nan", "commodities": ["Ti", "Zr"], "commodities_string": "Ti;Zr", "id": 333469, "latitude": -33.694641, "longitude": 115.35781899999999, "name": "Busselto-Vines V"}, "geometry": {"type": "Point", "coordinates": [115.35781899999999, -33.694641]}}, {"id": "133", "type": "Feature", "properties": {"age": "Archaean", "comment": "nan", "commodities": ["Ni", "Cu"], "commodities_string": "Ni;Cu", "id": 333470, "latitude": -31.07116158, "longitude": 121.0878362, "name": "Miriam"}, "geometry": {"type": "Point", "coordinates": [121.0878362, -31.07116158]}}, {"id": "134", "type": "Feature", "properties": {"age": "Late Cambrian", "comment": "nan", "commodities": ["Ag", "Au", "Cu"], "commodities_string": "Ag;Au;Cu", "id": 333471, "latitude": -42.038000000000004, "longitude": 145.5897, "name": "Lyell Comstock"}, "geometry": {"type": "Point", "coordinates": [145.5897, -42.038000000000004]}}, {"id": "135", "type": "Feature", "properties": {"age": null, "comment": "B4upd<10km(1.5):-", "commodities": ["Fe"], "commodities_string": "Fe", "id": 333473, "latitude": -33.61841883, "longitude": 149.1470821, "name": "Carcoar"}, "geometry": {"type": "Point", "coordinates": [149.1470821, -33.61841883]}}, {"id": "136", "type": "Feature", "properties": {"age": "Paleoproterozoic", "comment": "nan", "commodities": ["Au"], "commodities_string": "Au", "id": 333474, "latitude": -13.5257, "longitude": 131.3639, "name": "Chinese South"}, "geometry": {"type": "Point", "coordinates": [131.3639, -13.5257]}}, {"id": "137", "type": "Feature", "properties": {"age": "Archean", "comment": "Gold occurs in  saprock and Archaean bedrock, and also in palaeochannel deposits. Moolart Well is composed of the following adjacent deposits:Boston, Blenheim, Mosquito, Halifax, Wellington, Stirling North, Stirling, Lancaster North, and Lancaster.", "commodities": ["Au"], "commodities_string": "Au", "id": 333475, "latitude": -27.6112, "longitude": 122.3479, "name": "Moolart Well"}, "geometry": {"type": "Point", "coordinates": [122.3479, -27.6112]}}, {"id": "138", "type": "Feature", "properties": {"age": null, "comment": "nan", "commodities": ["Au"], "commodities_string": "Au", "id": 333476, "latitude": -25.7541, "longitude": 118.7086, "name": "Durack"}, "geometry": {"type": "Point", "coordinates": [118.7086, -25.7541]}}, {"id": "139", "type": "Feature", "properties": {"age": null, "comment": "nan", "commodities": ["Au"], "commodities_string": "Au", "id": 333477, "latitude": -28.169667999999998, "longitude": 122.49194299999999, "name": "Scotland Yet"}, "geometry": {"type": "Point", "coordinates": [122.49194299999999, -28.169667999999998]}}, {"id": "140", "type": "Feature", "properties": {"age": null, "comment": "145km NW of Newman", "commodities": ["Fe"], "commodities_string": "Fe", "id": 333478, "latitude": -22.554504, "longitude": 118.511063, "name": "Juna Lockyer"}, "geometry": {"type": "Point", "coordinates": [118.511063, -22.554504]}}, {"id": "141", "type": "Feature", "properties": {"age": null, "comment": "B4upd<500m(8):-Minloc", "commodities": ["Cu"], "commodities_string": "Cu", "id": 333480, "latitude": -33.95256432, "longitude": 137.7268441, "name": "Kadina"}, "geometry": {"type": "Point", "coordinates": [137.7268441, -33.95256432]}}, {"id": "142", "type": "Feature", "properties": {"age": null, "comment": "This is an historic mine with global resources reported based on past production.  No current resources.", "commodities": ["Au"], "commodities_string": "Au", "id": 333481, "latitude": -36.61453, "longitude": 143.25762, "name": "Lord Nelson"}, "geometry": {"type": "Point", "coordinates": [143.25762, -36.61453]}}, {"id": "143", "type": "Feature", "properties": {"age": null, "comment": "nan", "commodities": ["Au"], "commodities_string": "Au", "id": 333482, "latitude": -37.068659999999994, "longitude": 143.83411, "name": "Leviathan"}, "geometry": {"type": "Point", "coordinates": [143.83411, -37.068659999999994]}}, {"id": "144", "type": "Feature", "properties": {"age": null, "comment": "nan", "commodities": ["Au"], "commodities_string": "Au", "id": 333483, "latitude": -27.53061, "longitude": 120.55724, "name": "Kathleen Valley"}, "geometry": {"type": "Point", "coordinates": [120.55724, -27.53061]}}, {"id": "145", "type": "Feature", "properties": {"age": "Silurian", "comment": "425.0+-4.5 Ma; ref *15713", "commodities": ["Au", "Cu"], "commodities_string": "Au;Cu", "id": 333484, "latitude": -33.5265, "longitude": 149.1588, "name": "Browns Creek"}, "geometry": {"type": "Point", "coordinates": [149.1588, -33.5265]}}, {"id": "146", "type": "Feature", "properties": {"age": "Early Devonian", "comment": "nan", "commodities": ["Ag", "Zn", "Bi", "Cu", "Sb", "Pb", "Au"], "commodities_string": "Ag;Zn;Bi;Cu;Sb;Pb;Au", "id": 333485, "latitude": -31.162920899999996, "longitude": 145.6537957, "name": "Endeavor"}, "geometry": {"type": "Point", "coordinates": [145.6537957, -31.162920899999996]}}, {"id": "147", "type": "Feature", "properties": {"age": "Middle Devonian", "comment": "nan", "commodities": ["Ag", "Au", "Bi", "Cu"], "commodities_string": "Ag;Au;Bi;Cu", "id": 333486, "latitude": -23.63555924, "longitude": 150.37498630000002, "name": "Mount Morgan"}, "geometry": {"type": "Point", "coordinates": [150.37498630000002, -23.63555924]}}, {"id": "148", "type": "Feature", "properties": {"age": "Palaeozoic", "comment": "nan", "commodities": ["Ag", "Au", "Cu", "Pb"], "commodities_string": "Ag;Au;Cu;Pb", "id": 333487, "latitude": -36.22382481, "longitude": 149.7536844, "name": "Nerrigundah"}, "geometry": {"type": "Point", "coordinates": [149.7536844, -36.22382481]}}, {"id": "149", "type": "Feature", "properties": {"age": "Archaean", "comment": "nan", "commodities": ["Au"], "commodities_string": "Au", "id": 333488, "latitude": -31.39748399, "longitude": 119.01599569999999, "name": "Palmers Find"}, "geometry": {"type": "Point", "coordinates": [119.01599569999999, -31.39748399]}}, {"id": "150", "type": "Feature", "properties": {"age": "Quaternary", "comment": "Iluka announced Dec 2008 the closure of this mine\nResources for this deposit in Iluka total for SW WA", "commodities": ["Ti", "Zr"], "commodities_string": "Ti;Zr", "id": 333489, "latitude": -32.82652834, "longitude": 115.93860459999999, "name": "Waroona Shoreline"}, "geometry": {"type": "Point", "coordinates": [115.93860459999999, -32.82652834]}}, {"id": "151", "type": "Feature", "properties": {"age": "Carboniferous", "comment": "nan", "commodities": ["Ag", "Au"], "commodities_string": "Ag;Au", "id": 333490, "latitude": -21.11692783, "longitude": 147.26998989999998, "name": "Wirralie"}, "geometry": {"type": "Point", "coordinates": [147.26998989999998, -21.11692783]}}, {"id": "152", "type": "Feature", "properties": {"age": "Triassic", "comment": "220 Ma?", "commodities": ["Cu", "Mo"], "commodities_string": "Cu;Mo", "id": 333493, "latitude": -22.99810768, "longitude": 150.69372030000002, "name": "Yeppoon"}, "geometry": {"type": "Point", "coordinates": [150.69372030000002, -22.99810768]}}, {"id": "153", "type": "Feature", "properties": {"age": "Devonian", "comment": "nan", "commodities": ["Sn"], "commodities_string": "Sn", "id": 333494, "latitude": -41.82907361, "longitude": 147.88653349999998, "name": "Royal George"}, "geometry": {"type": "Point", "coordinates": [147.88653349999998, -41.82907361]}}, {"id": "154", "type": "Feature", "properties": {"age": "unknown", "comment": "nan", "commodities": ["Fe"], "commodities_string": "Fe", "id": 333496, "latitude": -37.45188047, "longitude": 148.20084509999998, "name": "Buchan"}, "geometry": {"type": "Point", "coordinates": [148.20084509999998, -37.45188047]}}, {"id": "155", "type": "Feature", "properties": {"age": "Early Palaeozoic", "comment": "nan", "commodities": ["Ag", "Au", "Zn", "Pb"], "commodities_string": "Ag;Au;Zn;Pb", "id": 333497, "latitude": -33.77827496, "longitude": 149.2610024, "name": "Kempfield"}, "geometry": {"type": "Point", "coordinates": [149.2610024, -33.77827496]}}, {"id": "156", "type": "Feature", "properties": {"age": "Archaean", "comment": "nan", "commodities": ["PGE", "Ta", "Sn"], "commodities_string": "PGE;Ta;Sn", "id": 333503, "latitude": -33.85584603, "longitude": 116.06683000000001, "name": "Greenbushes"}, "geometry": {"type": "Point", "coordinates": [116.06683000000001, -33.85584603]}}, {"id": "157", "type": "Feature", "properties": {"age": "Ordovician", "comment": "nan", "commodities": ["Au"], "commodities_string": "Au", "id": 333504, "latitude": -36.6734, "longitude": 144.5088, "name": "Robbins Hill Open Pit"}, "geometry": {"type": "Point", "coordinates": [144.5088, -36.6734]}}, {"id": "158", "type": "Feature", "properties": {"age": "Proterozoic", "comment": "nan", "commodities": ["Cu"], "commodities_string": "Cu", "id": 333505, "latitude": -19.99058674, "longitude": 139.1131956, "name": "Boomerang"}, "geometry": {"type": "Point", "coordinates": [139.1131956, -19.99058674]}}, {"id": "159", "type": "Feature", "properties": {"age": "Proterozoic", "comment": "nan", "commodities": ["Cu"], "commodities_string": "Cu", "id": 333506, "latitude": -19.67456094, "longitude": 139.8081852, "name": "Hidden Treasure"}, "geometry": {"type": "Point", "coordinates": [139.8081852, -19.67456094]}}, {"id": "160", "type": "Feature", "properties": {"age": "Proterozoic", "comment": "nan", "commodities": ["Cu"], "commodities_string": "Cu", "id": 333507, "latitude": -20.82258051, "longitude": 139.4791937, "name": "Native Bee"}, "geometry": {"type": "Point", "coordinates": [139.4791937, -20.82258051]}}, {"id": "161", "type": "Feature", "properties": {"age": "Proterozoic", "comment": "nan", "commodities": ["Cu"], "commodities_string": "Cu", "id": 333508, "latitude": -20.219565399999997, "longitude": 139.8361909, "name": "Queen Elizabeth"}, "geometry": {"type": "Point", "coordinates": [139.8361909, -20.219565399999997]}}, {"id": "162", "type": "Feature", "properties": {"age": "Proterozoic", "comment": "nan", "commodities": ["Cu"], "commodities_string": "Cu", "id": 333509, "latitude": -21.52302696, "longitude": 140.508012, "name": "Selwyn"}, "geometry": {"type": "Point", "coordinates": [140.508012, -21.52302696]}}, {"id": "163", "type": "Feature", "properties": {"age": "Proterozoic", "comment": "nan", "commodities": ["Au", "Cu"], "commodities_string": "Au;Cu", "id": 333510, "latitude": -20.16156344, "longitude": 140.0001865, "name": "Surprise"}, "geometry": {"type": "Point", "coordinates": [140.0001865, -20.16156344]}}, {"id": "164", "type": "Feature", "properties": {"age": "Devonian", "comment": "Devonian age inferred from similarity with Charters Towers", "commodities": ["Au"], "commodities_string": "Au", "id": 333513, "latitude": -20.10037636, "longitude": 146.6120071, "name": "Hadleigh Castle"}, "geometry": {"type": "Point", "coordinates": [146.6120071, -20.10037636]}}, {"id": "165", "type": "Feature", "properties": {"age": "unknown", "comment": "Mineralisation is most likely Archean but overprinted/remobilised during the Proterozoic Eon", "commodities": ["Au"], "commodities_string": "Au", "id": 333514, "latitude": -25.1024, "longitude": 119.7465, "name": "K1"}, "geometry": {"type": "Point", "coordinates": [119.7465, -25.1024]}}, {"id": "166", "type": "Feature", "properties": {"age": "Archaean", "comment": "nan", "commodities": ["Au"], "commodities_string": "Au", "id": 333515, "latitude": -26.36966825, "longitude": 120.5889159, "name": "Nim 7"}, "geometry": {"type": "Point", "coordinates": [120.5889159, -26.36966825]}}, {"id": "167", "type": "Feature", "properties": {"age": "Archaean", "comment": "nan", "commodities": ["Au"], "commodities_string": "Au", "id": 333516, "latitude": -30.83614108, "longitude": 121.403543, "name": "Centurion"}, "geometry": {"type": "Point", "coordinates": [121.403543, -30.83614108]}}, {"id": "168", "type": "Feature", "properties": {"age": null, "comment": "nan", "commodities": ["Cu"], "commodities_string": "Cu", "id": 333517, "latitude": -17.02883162, "longitude": 144.1177755, "name": "Cardross"}, "geometry": {"type": "Point", "coordinates": [144.1177755, -17.02883162]}}, {"id": "169", "type": "Feature", "properties": {"age": null, "comment": "B4upd<10km(2.3):-Deposit Is Located 10 Km Southeast Of Burnie;", "commodities": ["Fe"], "commodities_string": "Fe", "id": 333518, "latitude": -41.13869343, "longitude": 145.9539676, "name": "Blythe River"}, "geometry": {"type": "Point", "coordinates": [145.9539676, -41.13869343]}}, {"id": "170", "type": "Feature", "properties": {"age": null, "comment": "The Deposit Is Referred To As Anderson Creek-Beaconsfield Nickel -Cobalt Project (See Anderson Creek For Resources) Close To Beaconsfield Gold Deposit. Used To Be Known As Anderson Creek", "commodities": ["Ni", "Co"], "commodities_string": "Ni;Co", "id": 333519, "latitude": -41.215610999999996, "longitude": 146.778861, "name": "Barnes Hill Nickel (Beaconsfield, Anderson Creek Ni)"}, "geometry": {"type": "Point", "coordinates": [146.778861, -41.215610999999996]}}, {"id": "171", "type": "Feature", "properties": {"age": "Archean", "comment": "See Sunrise Dam deposit  - AngloGold Ashanti as this record relates to the Barrick and earlier era", "commodities": ["Au"], "commodities_string": "Au", "id": 333522, "latitude": -29.07386137, "longitude": 122.42781129999999, "name": "Sunrise"}, "geometry": {"type": "Point", "coordinates": [122.42781129999999, -29.07386137]}}, {"id": "172", "type": "Feature", "properties": {"age": null, "comment": "Deposit Located 8 Km North Of Wilgena;", "commodities": ["Fe"], "commodities_string": "Fe", "id": 333523, "latitude": -30.69571254, "longitude": 134.71798700000002, "name": "Wilgena Hill"}, "geometry": {"type": "Point", "coordinates": [134.71798700000002, -30.69571254]}}, {"id": "173", "type": "Feature", "properties": {"age": "Archean", "comment": "nan", "commodities": ["Au"], "commodities_string": "Au", "id": 333524, "latitude": -26.8888, "longitude": 118.34700000000001, "name": "Nannine Mine"}, "geometry": {"type": "Point", "coordinates": [118.34700000000001, -26.8888]}}, {"id": "174", "type": "Feature", "properties": {"age": null, "comment": "B4upd<500m(4):-", "commodities": ["Ag", "Zn", "Cu", "Pb", "Au"], "commodities_string": "Ag;Zn;Cu;Pb;Au", "id": 333525, "latitude": -20.75711, "longitude": 117.7045, "name": "Salt Creek"}, "geometry": {"type": "Point", "coordinates": [117.7045, -20.75711]}}, {"id": "175", "type": "Feature", "properties": {"age": null, "comment": "nan", "commodities": ["Ni", "Cu", "Co"], "commodities_string": "Ni;Cu;Co", "id": 333527, "latitude": -31.350551199999998, "longitude": 121.5058833, "name": "Spargoville - Location 5a"}, "geometry": {"type": "Point", "coordinates": [121.5058833, -31.350551199999998]}}, {"id": "176", "type": "Feature", "properties": {"age": null, "comment": "Located 85 Km West North West Of Townsville", "commodities": ["Fe"], "commodities_string": "Fe", "id": 333528, "latitude": -19.09545057, "longitude": 145.851077, "name": "Willets Knob"}, "geometry": {"type": "Point", "coordinates": [145.851077, -19.09545057]}}, {"id": "177", "type": "Feature", "properties": {"age": null, "comment": "Location Based On Mount Christie Railway Siding;", "commodities": ["Fe"], "commodities_string": "Fe", "id": 333529, "latitude": -30.54575343, "longitude": 133.21799769999998, "name": "Mount Christie"}, "geometry": {"type": "Point", "coordinates": [133.21799769999998, -30.54575343]}}, {"id": "178", "type": "Feature", "properties": {"age": "Archean", "comment": "nan", "commodities": ["Au"], "commodities_string": "Au", "id": 333532, "latitude": -27.4704, "longitude": 120.96221000000001, "name": "Anomaly 45"}, "geometry": {"type": "Point", "coordinates": [120.96221000000001, -27.4704]}}, {"id": "179", "type": "Feature", "properties": {"age": null, "comment": "nan", "commodities": ["Sn"], "commodities_string": "Sn", "id": 333534, "latitude": -16.27849957, "longitude": 145.3010656, "name": "China Camp"}, "geometry": {"type": "Point", "coordinates": [145.3010656, -16.27849957]}}, {"id": "180", "type": "Feature", "properties": {"age": null, "comment": "nan", "commodities": ["Sn"], "commodities_string": "Sn", "id": 333535, "latitude": -19.27844902, "longitude": 145.9680766, "name": "Running Creek"}, "geometry": {"type": "Point", "coordinates": [145.9680766, -19.27844902]}}, {"id": "181", "type": "Feature", "properties": {"age": null, "comment": "nan", "commodities": ["Au"], "commodities_string": "Au", "id": 333536, "latitude": -36.81188155, "longitude": 144.26982809999998, "name": "Saint Kilda"}, "geometry": {"type": "Point", "coordinates": [144.26982809999998, -36.81188155]}}, {"id": "182", "type": "Feature", "properties": {"age": null, "comment": "35 Km Sw Of Horsham; Co-Ordinates Provided By Wim", "commodities": ["REE", "Ti", "Th", "Zr"], "commodities_string": "REE;Ti;Th;Zr", "id": 333537, "latitude": -36.96224006, "longitude": 141.6013771, "name": "Wim 100"}, "geometry": {"type": "Point", "coordinates": [141.6013771, -36.96224006]}}, {"id": "183", "type": "Feature", "properties": {"age": null, "comment": "nan", "commodities": ["Sn"], "commodities_string": "Sn", "id": 333538, "latitude": -36.44036578, "longitude": 148.0552322, "name": "Surveyors Creek"}, "geometry": {"type": "Point", "coordinates": [148.0552322, -36.44036578]}}, {"id": "184", "type": "Feature", "properties": {"age": null, "comment": "nan", "commodities": ["Au"], "commodities_string": "Au", "id": 333540, "latitude": -32.24197049, "longitude": 121.70756029999998, "name": "Abbotshall"}, "geometry": {"type": "Point", "coordinates": [121.70756029999998, -32.24197049]}}, {"id": "185", "type": "Feature", "properties": {"age": null, "comment": "nan", "commodities": ["Au"], "commodities_string": "Au", "id": 333542, "latitude": -28.02254878, "longitude": 119.3367341, "name": "Bull Oak"}, "geometry": {"type": "Point", "coordinates": [119.3367341, -28.02254878]}}, {"id": "186", "type": "Feature", "properties": {"age": null, "comment": "nan", "commodities": ["Au"], "commodities_string": "Au", "id": 333544, "latitude": -19.73048989, "longitude": 143.3878243, "name": "Soapspar"}, "geometry": {"type": "Point", "coordinates": [143.3878243, -19.73048989]}}, {"id": "187", "type": "Feature", "properties": {"age": "Archean", "comment": "nan", "commodities": ["Au"], "commodities_string": "Au", "id": 333546, "latitude": -27.3852, "longitude": 120.9978, "name": "Bronzewing Group"}, "geometry": {"type": "Point", "coordinates": [120.9978, -27.3852]}}, {"id": "188", "type": "Feature", "properties": {"age": null, "comment": "100 Km Sw Of Norseman", "commodities": ["V", "Ti"], "commodities_string": "V;Ti", "id": 333548, "latitude": -32.530613699999996, "longitude": 120.7964497, "name": "Medcalf"}, "geometry": {"type": "Point", "coordinates": [120.7964497, -32.530613699999996]}}, {"id": "189", "type": "Feature", "properties": {"age": null, "comment": "nan", "commodities": ["Fe"], "commodities_string": "Fe", "id": 333550, "latitude": -20.45897984, "longitude": 120.0574437, "name": "Sunrise Hill"}, "geometry": {"type": "Point", "coordinates": [120.0574437, -20.45897984]}}, {"id": "190", "type": "Feature", "properties": {"age": null, "comment": "nan", "commodities": ["U"], "commodities_string": "U", "id": 333551, "latitude": -17.50261259, "longitude": 138.1181986, "name": "Huarabagoo"}, "geometry": {"type": "Point", "coordinates": [138.1181986, -17.50261259]}}, {"id": "191", "type": "Feature", "properties": {"age": "Archean", "comment": "nan", "commodities": ["Au"], "commodities_string": "Au", "id": 333553, "latitude": -27.1127, "longitude": 118.2654, "name": "Missing Link"}, "geometry": {"type": "Point", "coordinates": [118.2654, -27.1127]}}, {"id": "192", "type": "Feature", "properties": {"age": "Archean", "comment": "Part of Gidgee project", "commodities": ["Au"], "commodities_string": "Au", "id": 333554, "latitude": -27.4517, "longitude": 119.5709, "name": "Howards"}, "geometry": {"type": "Point", "coordinates": [119.5709, -27.4517]}}, {"id": "193", "type": "Feature", "properties": {"age": null, "comment": "Location from NSW GS Minview web map", "commodities": ["REE", "Ti", "Th", "Zr"], "commodities_string": "REE;Ti;Th;Zr", "id": 333555, "latitude": -33.34, "longitude": 142.31, "name": "Winchester"}, "geometry": {"type": "Point", "coordinates": [142.31, -33.34]}}, {"id": "194", "type": "Feature", "properties": {"age": null, "comment": "Located near Euston", "commodities": ["Ti", "Zr"], "commodities_string": "Ti;Zr", "id": 333557, "latitude": -34.3569, "longitude": 142.67421000000002, "name": "Koolaman"}, "geometry": {"type": "Point", "coordinates": [142.67421000000002, -34.3569]}}, {"id": "195", "type": "Feature", "properties": {"age": null, "comment": "Part of Gwindinup project of Cable Sands", "commodities": ["REE", "Ti", "Th", "Zr"], "commodities_string": "REE;Ti;Th;Zr", "id": 333558, "latitude": -33.549896000000004, "longitude": 115.71621699999999, "name": "Happy Valley North"}, "geometry": {"type": "Point", "coordinates": [115.71621699999999, -33.549896000000004]}}, {"id": "196", "type": "Feature", "properties": {"age": null, "comment": "nan", "commodities": ["Ag", "Au"], "commodities_string": "Ag;Au", "id": 333559, "latitude": -21.093754, "longitude": 119.36389199999999, "name": "Mickeys Find"}, "geometry": {"type": "Point", "coordinates": [119.36389199999999, -21.093754]}}, {"id": "197", "type": "Feature", "properties": {"age": null, "comment": "nan", "commodities": ["Ni", "Cu", "Co"], "commodities_string": "Ni;Cu;Co", "id": 333560, "latitude": -31.519135, "longitude": 121.587524, "name": "Widgie 3"}, "geometry": {"type": "Point", "coordinates": [121.587524, -31.519135]}}, {"id": "198", "type": "Feature", "properties": {"age": "Tertiary", "comment": "(?)", "commodities": ["Ni", "Co"], "commodities_string": "Ni;Co", "id": 333564, "latitude": -28.7668, "longitude": 121.89299999999999, "name": "Murrin Murrin"}, "geometry": {"type": "Point", "coordinates": [121.89299999999999, -28.7668]}}, {"id": "199", "type": "Feature", "properties": {"age": null, "comment": "nan", "commodities": ["Au"], "commodities_string": "Au", "id": 333565, "latitude": -19.797189000000003, "longitude": 146.478883, "name": "Golden Valley"}, "geometry": {"type": "Point", "coordinates": [146.478883, -19.797189000000003]}}, {"id": "200", "type": "Feature", "properties": {"age": null, "comment": "Deposit was owned by Apollo Gold Mining about 2004 which then became Crescent Gold Limited which was acquired by Focus Minerals Limited. Location is not accurate but is just north of the Bogle South. deposit.", "commodities": ["Au"], "commodities_string": "Au", "id": 333567, "latitude": -28.6314, "longitude": 122.4944, "name": "Jacks"}, "geometry": {"type": "Point", "coordinates": [122.4944, -28.6314]}}, {"id": "201", "type": "Feature", "properties": {"age": "Palaeozoic", "comment": "nan", "commodities": ["Au"], "commodities_string": "Au", "id": 333568, "latitude": -34.52724558, "longitude": 148.3995954, "name": "Harden-Murrumburrah"}, "geometry": {"type": "Point", "coordinates": [148.3995954, -34.52724558]}}, {"id": "202", "type": "Feature", "properties": {"age": null, "comment": "nan", "commodities": ["Au"], "commodities_string": "Au", "id": 333569, "latitude": -29.961855, "longitude": 121.13233899999999, "name": "Sand George"}, "geometry": {"type": "Point", "coordinates": [121.13233899999999, -29.961855]}}, {"id": "203", "type": "Feature", "properties": {"age": null, "comment": "37km SW of Tom Price", "commodities": ["Fe"], "commodities_string": "Fe", "id": 333570, "latitude": -22.823395, "longitude": 117.464661, "name": "Rocklea"}, "geometry": {"type": "Point", "coordinates": [117.464661, -22.823395]}}, {"id": "204", "type": "Feature", "properties": {"age": null, "comment": "Global resource is the aggregate of past production. No current resources.", "commodities": ["Au"], "commodities_string": "Au", "id": 333571, "latitude": -37.34805, "longitude": 144.14413000000002, "name": "North Cornish"}, "geometry": {"type": "Point", "coordinates": [144.14413000000002, -37.34805]}}, {"id": "205", "type": "Feature", "properties": {"age": null, "comment": "nan", "commodities": ["Au"], "commodities_string": "Au", "id": 333572, "latitude": -17.836613, "longitude": 127.93013799999999, "name": "Star of Kimberley"}, "geometry": {"type": "Point", "coordinates": [127.93013799999999, -17.836613]}}, {"id": "206", "type": "Feature", "properties": {"age": null, "comment": "nan", "commodities": ["Ag", "Zn", "Cu", "Pb", "Au"], "commodities_string": "Ag;Zn;Cu;Pb;Au", "id": 333573, "latitude": -32.1107, "longitude": 146.3259, "name": "Hera"}, "geometry": {"type": "Point", "coordinates": [146.3259, -32.1107]}}, {"id": "207", "type": "Feature", "properties": {"age": "Archean", "comment": "nan", "commodities": ["Au"], "commodities_string": "Au", "id": 333575, "latitude": -30.2015, "longitude": 119.2709, "name": "Python"}, "geometry": {"type": "Point", "coordinates": [119.2709, -30.2015]}}, {"id": "208", "type": "Feature", "properties": {"age": "Late Permian", "comment": "nan", "commodities": ["Au"], "commodities_string": "Au", "id": 333576, "latitude": -30.51352238, "longitude": 151.6666958, "name": "Armidale - Rockvale"}, "geometry": {"type": "Point", "coordinates": [151.6666958, -30.51352238]}}, {"id": "209", "type": "Feature", "properties": {"age": "Archaean", "comment": "nan", "commodities": ["Au"], "commodities_string": "Au", "id": 333577, "latitude": -27.62969331, "longitude": 120.5606327, "name": "Bellevue"}, "geometry": {"type": "Point", "coordinates": [120.5606327, -27.62969331]}}, {"id": "210", "type": "Feature", "properties": {"age": "Archaean", "comment": "Part of Aragon Resources Murchison Bell project - see also Big Bell Satellite Deposits. 2010/11 WestGold is in the process of taking over Aragon Resources", "commodities": ["Au"], "commodities_string": "Au", "id": 333578, "latitude": -27.3191, "longitude": 117.656, "name": "Big Bell"}, "geometry": {"type": "Point", "coordinates": [117.656, -27.3191]}}, {"id": "211", "type": "Feature", "properties": {"age": "Archaean", "comment": "nan", "commodities": ["Ni", "Cu"], "commodities_string": "Ni;Cu", "id": 333579, "latitude": -30.05770935, "longitude": 121.6275354, "name": "Carr Boyd"}, "geometry": {"type": "Point", "coordinates": [121.6275354, -30.05770935]}}, {"id": "212", "type": "Feature", "properties": {"age": "Archaean", "comment": "3340 Ma", "commodities": ["Ag", "Cu", "Fe", "Mo"], "commodities_string": "Ag;Cu;Fe;Mo", "id": 333580, "latitude": -20.887520000000002, "longitude": 120.1118, "name": "Spinifex Ridge"}, "geometry": {"type": "Point", "coordinates": [120.1118, -20.887520000000002]}}, {"id": "213", "type": "Feature", "properties": {"age": "Early Devonian", "comment": "390 Ma", "commodities": ["Ag", "Zn", "Cu", "Pb"], "commodities_string": "Ag;Zn;Cu;Pb", "id": 333581, "latitude": -31.40801981, "longitude": 145.7985966, "name": "Cobar CSA"}, "geometry": {"type": "Point", "coordinates": [145.7985966, -31.40801981]}}, {"id": "214", "type": "Feature", "properties": {"age": "Archean", "comment": "Round Dam seems to have been an old project name which included the deposits; Lights of Israel, Golden Eagle and several others in the Davyhurst area. These deposits have their own records now (as at 2006 - A Whitaker)", "commodities": ["Au"], "commodities_string": "Au", "id": 333582, "latitude": -30.1551, "longitude": 120.6523, "name": "Round Dam"}, "geometry": {"type": "Point", "coordinates": [120.6523, -30.1551]}}, {"id": "215", "type": "Feature", "properties": {"age": "Quaternary", "comment": "age of deep leads?", "commodities": ["Au"], "commodities_string": "Au", "id": 333583, "latitude": -32.39870273, "longitude": 149.56294499999998, "name": "Gulgong"}, "geometry": {"type": "Point", "coordinates": [149.56294499999998, -32.39870273]}}, {"id": "216", "type": "Feature", "properties": {"age": "Tertiary", "comment": "nan", "commodities": ["U"], "commodities_string": "U", "id": 333586, "latitude": -26.69717772, "longitude": 120.3594259, "name": "Lake Way"}, "geometry": {"type": "Point", "coordinates": [120.3594259, -26.69717772]}}, {"id": "217", "type": "Feature", "properties": {"age": "Palaeoproterozoic", "comment": "1640 Ma, ref *11566", "commodities": ["Ag", "Zn", "Cu", "Sb", "Pb"], "commodities_string": "Ag;Zn;Cu;Sb;Pb", "id": 333587, "latitude": -16.43221389, "longitude": 136.0930111, "name": "McArthur River"}, "geometry": {"type": "Point", "coordinates": [136.0930111, -16.43221389]}}, {"id": "218", "type": "Feature", "properties": {"age": "Archaean", "comment": "nan", "commodities": ["Au"], "commodities_string": "Au", "id": 333589, "latitude": -31.02513641, "longitude": 121.6022389, "name": "New Celebration"}, "geometry": {"type": "Point", "coordinates": [121.6022389, -31.02513641]}}, {"id": "219", "type": "Feature", "properties": {"age": "Palaeozoic", "comment": "nan", "commodities": ["U"], "commodities_string": "U", "id": 333590, "latitude": -16.75823142, "longitude": 123.9970289, "name": "Oobagooma"}, "geometry": {"type": "Point", "coordinates": [123.9970289, -16.75823142]}}, {"id": "220", "type": "Feature", "properties": {"age": "Late Cambrian", "comment": "nan", "commodities": ["Ag", "Zn", "Cu", "Pb", "Au"], "commodities_string": "Ag;Zn;Cu;Pb;Au", "id": 333591, "latitude": -41.603, "longitude": 145.6999, "name": "Que River"}, "geometry": {"type": "Point", "coordinates": [145.6999, -41.603]}}, {"id": "221", "type": "Feature", "properties": {"age": "Archaean", "comment": "nan", "commodities": ["Au"], "commodities_string": "Au", "id": 333593, "latitude": -31.73136071, "longitude": 121.7333017, "name": "Higginsville"}, "geometry": {"type": "Point", "coordinates": [121.7333017, -31.73136071]}}, {"id": "222", "type": "Feature", "properties": {"age": "Archaean", "comment": "probably 2760 Ma?", "commodities": ["Ag", "Zn", "Pb"], "commodities_string": "Ag;Zn;Pb", "id": 333594, "latitude": -21.28946907, "longitude": 121.1424622, "name": "Ragged Hills"}, "geometry": {"type": "Point", "coordinates": [121.1424622, -21.28946907]}}, {"id": "223", "type": "Feature", "properties": {"age": "Palaeoproterozoic", "comment": "1844 \u00b1 3 Ma - U-Pb zircon age of mottled anorthosite from upper fractionated part of gabbroic zone.\n1846 \u00b1 5 Ma - U-Pb baddeleyite age of mottled anorthosite from upper fractionated part of gabbroic zone.  See Page and Hoatson (2000) - AGSO Bulletin 246, p. 163-172.\n\nU-Pb baddeleyite age of mottled anorthosite from upper fractionated part of gabbroic zone\n\n", "commodities": ["Ni", "Cu", "PGE", "Co"], "commodities_string": "Ni;Cu;PGE;Co", "id": 333595, "latitude": -17.34720567, "longitude": 128.0234929, "name": "Savannah"}, "geometry": {"type": "Point", "coordinates": [128.0234929, -17.34720567]}}, {"id": "224", "type": "Feature", "properties": {"age": "Mesoproterozoic", "comment": "about 1500 Ma", "commodities": ["Au", "Cu"], "commodities_string": "Au;Cu", "id": 333596, "latitude": -21.54, "longitude": 140.5017, "name": "Mount Elliott"}, "geometry": {"type": "Point", "coordinates": [140.5017, -21.54]}}, {"id": "225", "type": "Feature", "properties": {"age": "Tertiary", "comment": "nan", "commodities": ["Ni", "Fe", "Co"], "commodities_string": "Ni;Fe;Co", "id": 333597, "latitude": -23.03016215, "longitude": 150.2999827, "name": "Brolga"}, "geometry": {"type": "Point", "coordinates": [150.2999827, -23.03016215]}}, {"id": "226", "type": "Feature", "properties": {"age": "Permian", "comment": "nan", "commodities": ["W"], "commodities_string": "W", "id": 333598, "latitude": -16.33610037, "longitude": 144.8818805, "name": "Watershed"}, "geometry": {"type": "Point", "coordinates": [144.8818805, -16.33610037]}}, {"id": "227", "type": "Feature", "properties": {"age": "Cambrian", "comment": "nan", "commodities": ["Ag", "Au", "Cu"], "commodities_string": "Ag;Au;Cu", "id": 333599, "latitude": -35.0919, "longitude": 139.0054, "name": "Kanmantoo"}, "geometry": {"type": "Point", "coordinates": [139.0054, -35.0919]}}, {"id": "228", "type": "Feature", "properties": {"age": "Tertiary", "comment": "nan", "commodities": ["Au"], "commodities_string": "Au", "id": 333600, "latitude": -36.65698041, "longitude": 144.3166158, "name": "Huntly"}, "geometry": {"type": "Point", "coordinates": [144.3166158, -36.65698041]}}, {"id": "229", "type": "Feature", "properties": {"age": "Proterozoic", "comment": "nan", "commodities": ["Zn"], "commodities_string": "Zn", "id": 333601, "latitude": -21.57254304, "longitude": 140.9101774, "name": "Maramungee"}, "geometry": {"type": "Point", "coordinates": [140.9101774, -21.57254304]}}, {"id": "230", "type": "Feature", "properties": {"age": "Proterozoic", "comment": "nan", "commodities": ["Co"], "commodities_string": "Co", "id": 333604, "latitude": -32.08872573, "longitude": 141.2207448, "name": "Big Hill"}, "geometry": {"type": "Point", "coordinates": [141.2207448, -32.08872573]}}, {"id": "231", "type": "Feature", "properties": {"age": "Permian", "comment": "could also be Triassic", "commodities": ["Sn"], "commodities_string": "Sn", "id": 333605, "latitude": -29.42823535, "longitude": 151.56708759999998, "name": "Taronga"}, "geometry": {"type": "Point", "coordinates": [151.56708759999998, -29.42823535]}}, {"id": "232", "type": "Feature", "properties": {"age": "Archaean", "comment": "nan", "commodities": ["Au"], "commodities_string": "Au", "id": 333609, "latitude": -27.40037835, "longitude": 117.92084550000001, "name": "Cue"}, "geometry": {"type": "Point", "coordinates": [117.92084550000001, -27.40037835]}}, {"id": "233", "type": "Feature", "properties": {"age": "Archaean", "comment": "2920 Ma", "commodities": ["Ag", "Zn", "Cu", "Pb", "Au"], "commodities_string": "Ag;Zn;Cu;Pb;Au", "id": 333611, "latitude": -20.87713138, "longitude": 117.8090838, "name": "Mons Cupri"}, "geometry": {"type": "Point", "coordinates": [117.8090838, -20.87713138]}}, {"id": "234", "type": "Feature", "properties": {"age": "Proterozoic", "comment": "nan", "commodities": ["Cu"], "commodities_string": "Cu", "id": 333612, "latitude": -19.9575868, "longitude": 139.11479540000002, "name": "Again"}, "geometry": {"type": "Point", "coordinates": [139.11479540000002, -19.9575868]}}, {"id": "235", "type": "Feature", "properties": {"age": "Carboniferous", "comment": "nan", "commodities": ["Au"], "commodities_string": "Au", "id": 333617, "latitude": -18.19492781, "longitude": 142.24172959999999, "name": "Iguana - Lady Mary"}, "geometry": {"type": "Point", "coordinates": [142.24172959999999, -18.19492781]}}, {"id": "236", "type": "Feature", "properties": {"age": "Proterozoic", "comment": "nan", "commodities": ["Au"], "commodities_string": "Au", "id": 333618, "latitude": -13.607999999999999, "longitude": 131.7176, "name": "Spring Hill"}, "geometry": {"type": "Point", "coordinates": [131.7176, -13.607999999999999]}}, {"id": "237", "type": "Feature", "properties": {"age": "Archaean", "comment": "2660-2640Ma", "commodities": ["Au"], "commodities_string": "Au", "id": 333619, "latitude": -31.31783688, "longitude": 121.77424640000001, "name": "Britannia"}, "geometry": {"type": "Point", "coordinates": [121.77424640000001, -31.31783688]}}, {"id": "238", "type": "Feature", "properties": {"age": "Archaean", "comment": "nan", "commodities": ["Au"], "commodities_string": "Au", "id": 333620, "latitude": -26.37906932, "longitude": 120.58841609999999, "name": "Nim 4"}, "geometry": {"type": "Point", "coordinates": [120.58841609999999, -26.37906932]}}, {"id": "239", "type": "Feature", "properties": {"age": null, "comment": "nan", "commodities": ["Fe"], "commodities_string": "Fe", "id": 333624, "latitude": -37.59559052, "longitude": 141.4013893, "name": "Casterton"}, "geometry": {"type": "Point", "coordinates": [141.4013893, -37.59559052]}}, {"id": "240", "type": "Feature", "properties": {"age": "Archean", "comment": "nan", "commodities": ["Au"], "commodities_string": "Au", "id": 333625, "latitude": -27.1334, "longitude": 118.2677, "name": "Triton"}, "geometry": {"type": "Point", "coordinates": [118.2677, -27.1334]}}, {"id": "241", "type": "Feature", "properties": {"age": null, "comment": "From Minloc Id 138848", "commodities": ["Ag", "Zn", "Cu", "Fe", "Pb", "Au"], "commodities_string": "Ag;Zn;Cu;Fe;Pb;Au", "id": 333626, "latitude": -35.2530926, "longitude": 149.7597907, "name": "Mayfield"}, "geometry": {"type": "Point", "coordinates": [149.7597907, -35.2530926]}}, {"id": "242", "type": "Feature", "properties": {"age": null, "comment": "nan", "commodities": ["Ni", "Cu"], "commodities_string": "Ni;Cu", "id": 333627, "latitude": -31.96974189, "longitude": 121.6430993, "name": "Pioneer"}, "geometry": {"type": "Point", "coordinates": [121.6430993, -31.96974189]}}, {"id": "243", "type": "Feature", "properties": {"age": null, "comment": "Bendigo, Victoria.", "commodities": ["Au"], "commodities_string": "Au", "id": 333630, "latitude": -36.76214818, "longitude": 144.284659, "name": "Deborah"}, "geometry": {"type": "Point", "coordinates": [144.284659, -36.76214818]}}, {"id": "244", "type": "Feature", "properties": {"age": null, "comment": "B4upd<500m(14):-Minloc", "commodities": ["Cu"], "commodities_string": "Cu", "id": 333631, "latitude": -17.17272975, "longitude": 137.7519885, "name": "Azurite"}, "geometry": {"type": "Point", "coordinates": [137.7519885, -17.17272975]}}, {"id": "245", "type": "Feature", "properties": {"age": "Archean", "comment": "nan", "commodities": ["Au"], "commodities_string": "Au", "id": 333632, "latitude": -30.049, "longitude": 120.6557, "name": "Golden Eagle (Carnegie)"}, "geometry": {"type": "Point", "coordinates": [120.6557, -30.049]}}, {"id": "246", "type": "Feature", "properties": {"age": null, "comment": "Co-Ordinates Of Round Hill Head (Not Town, But Headland)  Deposit Consists Of Rutile, Ilmenite,Zircon And Monazite; All Recorded Separately.", "commodities": ["REE", "Ti", "Th", "Zr"], "commodities_string": "REE;Ti;Th;Zr", "id": 333633, "latitude": -24.183744, "longitude": 151.89146399999998, "name": "Round Hill Head/Deepwater (IA)"}, "geometry": {"type": "Point", "coordinates": [151.89146399999998, -24.183744]}}, {"id": "247", "type": "Feature", "properties": {"age": null, "comment": "Part Of Panorama Project", "commodities": ["Ag", "Zn", "Cu", "Pb", "Au"], "commodities_string": "Ag;Zn;Cu;Pb;Au", "id": 333635, "latitude": -21.06398781, "longitude": 119.4000317, "name": "Bernts"}, "geometry": {"type": "Point", "coordinates": [119.4000317, -21.06398781]}}, {"id": "248", "type": "Feature", "properties": {"age": null, "comment": "nan", "commodities": ["Au"], "commodities_string": "Au", "id": 333636, "latitude": -28.6837, "longitude": 116.2846, "name": "Michaelangelo - Gullewa"}, "geometry": {"type": "Point", "coordinates": [116.2846, -28.6837]}}, {"id": "249", "type": "Feature", "properties": {"age": null, "comment": "nan", "commodities": ["Fe"], "commodities_string": "Fe", "id": 333638, "latitude": -34.89691358, "longitude": 149.5909895, "name": "Bangalore Creek"}, "geometry": {"type": "Point", "coordinates": [149.5909895, -34.89691358]}}, {"id": "250", "type": "Feature", "properties": {"age": null, "comment": "Deposits Are 6 Km West Of Breadalane Township; Coordinates Refer To Township;", "commodities": ["Fe"], "commodities_string": "Fe", "id": 333639, "latitude": -34.790353, "longitude": 149.444028, "name": "Breadalbane"}, "geometry": {"type": "Point", "coordinates": [149.444028, -34.790353]}}, {"id": "251", "type": "Feature", "properties": {"age": null, "comment": "25 Km E Of Ouyen, Northwestern Vic", "commodities": ["Ti", "Zr"], "commodities_string": "Ti;Zr", "id": 333641, "latitude": -35.05530251, "longitude": 142.633304, "name": "Kulwin, Woornack, Rownack, Pirro"}, "geometry": {"type": "Point", "coordinates": [142.633304, -35.05530251]}}, {"id": "252", "type": "Feature", "properties": {"age": "Archean", "comment": "nan", "commodities": ["Au"], "commodities_string": "Au", "id": 333642, "latitude": -29.0515, "longitude": 120.5236, "name": "Kestrel"}, "geometry": {"type": "Point", "coordinates": [120.5236, -29.0515]}}, {"id": "253", "type": "Feature", "properties": {"age": null, "comment": "68 Km Ne Of Katherine;", "commodities": ["Au", "Cu"], "commodities_string": "Au;Cu", "id": 333644, "latitude": -14.2186, "longitude": 132.8086, "name": "Copperflower"}, "geometry": {"type": "Point", "coordinates": [132.8086, -14.2186]}}, {"id": "254", "type": "Feature", "properties": {"age": null, "comment": "nan", "commodities": ["Zn", "W", "Bi", "Sn", "Pb"], "commodities_string": "Zn;W;Bi;Sn;Pb", "id": 333645, "latitude": -18.72966633, "longitude": 145.33468369999997, "name": "Perry Creek (Roburg) (Mount Perry)"}, "geometry": {"type": "Point", "coordinates": [145.33468369999997, -18.72966633]}}, {"id": "255", "type": "Feature", "properties": {"age": null, "comment": "Kundana Project", "commodities": ["Au"], "commodities_string": "Au", "id": 333646, "latitude": -30.71665689, "longitude": 121.24251609999999, "name": "Christmas"}, "geometry": {"type": "Point", "coordinates": [121.24251609999999, -30.71665689]}}, {"id": "256", "type": "Feature", "properties": {"age": "Archean", "comment": "nan", "commodities": ["Au"], "commodities_string": "Au", "id": 333647, "latitude": -26.725, "longitude": 118.4196, "name": "Iron Bar"}, "geometry": {"type": "Point", "coordinates": [118.4196, -26.725]}}, {"id": "257", "type": "Feature", "properties": {"age": null, "comment": "nan", "commodities": ["Au"], "commodities_string": "Au", "id": 333648, "latitude": -36.9335, "longitude": 145.88, "name": "Golden Mountain"}, "geometry": {"type": "Point", "coordinates": [145.88, -36.9335]}}, {"id": "258", "type": "Feature", "properties": {"age": "Archean", "comment": "nan", "commodities": ["Au"], "commodities_string": "Au", "id": 333649, "latitude": -30.6648, "longitude": 121.0584, "name": "Kunanalling Project"}, "geometry": {"type": "Point", "coordinates": [121.0584, -30.6648]}}, {"id": "259", "type": "Feature", "properties": {"age": null, "comment": "Originally Gouged Out Of A Number Of Irregular Open Cuts In A Radius Of 25m. This Mine Ranked Second To The North Australi", "commodities": ["Ag", "Cu", "Sn"], "commodities_string": "Ag;Cu;Sn", "id": 333650, "latitude": -17.37988221, "longitude": 145.3291804, "name": "Ironclad"}, "geometry": {"type": "Point", "coordinates": [145.3291804, -17.37988221]}}, {"id": "260", "type": "Feature", "properties": {"age": "Archean", "comment": "80 Km South Of Laverton.", "commodities": ["Au"], "commodities_string": "Au", "id": 333652, "latitude": -29.3188, "longitude": 122.5597, "name": "Fortitude"}, "geometry": {"type": "Point", "coordinates": [122.5597, -29.3188]}}, {"id": "261", "type": "Feature", "properties": {"age": null, "comment": "nan", "commodities": ["Fe"], "commodities_string": "Fe", "id": 333653, "latitude": -20.60766463, "longitude": 120.30195990000001, "name": "Yarrie (Mt Goldsworthy JV Northern_BHP)"}, "geometry": {"type": "Point", "coordinates": [120.30195990000001, -20.60766463]}}, {"id": "262", "type": "Feature", "properties": {"age": null, "comment": "nan", "commodities": ["Au"], "commodities_string": "Au", "id": 333654, "latitude": -36.6669, "longitude": 144.5132, "name": "Reads Deposit"}, "geometry": {"type": "Point", "coordinates": [144.5132, -36.6669]}}, {"id": "263", "type": "Feature", "properties": {"age": null, "comment": "Mining Lease M45/328", "commodities": ["Ag", "Au"], "commodities_string": "Ag;Au", "id": 333657, "latitude": -21.32732501, "longitude": 119.0400355, "name": "Mickeys Find East"}, "geometry": {"type": "Point", "coordinates": [119.0400355, -21.32732501]}}, {"id": "264", "type": "Feature", "properties": {"age": null, "comment": "nan", "commodities": ["Fe"], "commodities_string": "Fe", "id": 333658, "latitude": -20.46747876, "longitude": 120.0729007, "name": "Shay Gap"}, "geometry": {"type": "Point", "coordinates": [120.0729007, -20.46747876]}}, {"id": "265", "type": "Feature", "properties": {"age": "Archean", "comment": "nan", "commodities": ["Au"], "commodities_string": "Au", "id": 333660, "latitude": -21.8784, "longitude": 120.2916, "name": "Barton"}, "geometry": {"type": "Point", "coordinates": [120.2916, -21.8784]}}, {"id": "266", "type": "Feature", "properties": {"age": "Archean", "comment": "nan", "commodities": ["Au"], "commodities_string": "Au", "id": 333661, "latitude": -30.1198, "longitude": 119.1163, "name": "King Brown - Marda"}, "geometry": {"type": "Point", "coordinates": [119.1163, -30.1198]}}, {"id": "267", "type": "Feature", "properties": {"age": null, "comment": "Located near Kempsey", "commodities": ["Ti", "Zr"], "commodities_string": "Ti;Zr", "id": 333663, "latitude": -31.08333333, "longitude": 141.83333330000002, "name": "Maguires Crossing"}, "geometry": {"type": "Point", "coordinates": [141.83333330000002, -31.08333333]}}, {"id": "268", "type": "Feature", "properties": {"age": "Proterozoic", "comment": "Located 130km NNE of Derby", "commodities": ["Fe"], "commodities_string": "Fe", "id": 333664, "latitude": -16.127535, "longitude": 123.74018400000001, "name": "Koolan Island"}, "geometry": {"type": "Point", "coordinates": [123.74018400000001, -16.127535]}}, {"id": "269", "type": "Feature", "properties": {"age": null, "comment": "Part of the Sandalwood project of Cable Sands", "commodities": ["Ti", "Zr"], "commodities_string": "Ti;Zr", "id": 333665, "latitude": -33.196415, "longitude": 115.860046, "name": "Sandalwood Central"}, "geometry": {"type": "Point", "coordinates": [115.860046, -33.196415]}}, {"id": "270", "type": "Feature", "properties": {"age": "Palaeozoic", "comment": "nan", "commodities": ["Sn"], "commodities_string": "Sn", "id": 333668, "latitude": -17.32188387, "longitude": 145.263981, "name": "Arbouin"}, "geometry": {"type": "Point", "coordinates": [145.263981, -17.32188387]}}, {"id": "271", "type": "Feature", "properties": {"age": "Archean", "comment": "nan", "commodities": ["Au"], "commodities_string": "Au", "id": 333673, "latitude": -28.75, "longitude": 121.464, "name": "Gambier Lass"}, "geometry": {"type": "Point", "coordinates": [121.464, -28.75]}}, {"id": "272", "type": "Feature", "properties": {"age": null, "comment": "nan", "commodities": ["Zn", "Pb"], "commodities_string": "Zn;Pb", "id": 333674, "latitude": -31.08039262, "longitude": 138.66664619999997, "name": "North Flinders"}, "geometry": {"type": "Point", "coordinates": [138.66664619999997, -31.08039262]}}, {"id": "273", "type": "Feature", "properties": {"age": null, "comment": "nan", "commodities": ["U", "Ag", "Au", "Cu"], "commodities_string": "U;Ag;Au;Cu", "id": 333675, "latitude": -29.72004, "longitude": 135.5749, "name": "Prominent Hill"}, "geometry": {"type": "Point", "coordinates": [135.5749, -29.72004]}}, {"id": "274", "type": "Feature", "properties": {"age": null, "comment": "nan", "commodities": ["Au"], "commodities_string": "Au", "id": 333676, "latitude": -30.189804, "longitude": 121.21725500000001, "name": "Grafters"}, "geometry": {"type": "Point", "coordinates": [121.21725500000001, -30.189804]}}, {"id": "275", "type": "Feature", "properties": {"age": null, "comment": "nan", "commodities": ["REE", "Ti", "Th", "Zr"], "commodities_string": "REE;Ti;Th;Zr", "id": 333678, "latitude": -11.72027, "longitude": 130.065651, "name": "Puwanapi"}, "geometry": {"type": "Point", "coordinates": [130.065651, -11.72027]}}, {"id": "276", "type": "Feature", "properties": {"age": "Archean", "comment": "nan", "commodities": ["Au"], "commodities_string": "Au", "id": 333679, "latitude": -27.4063, "longitude": 118.1179, "name": "Jasper Queen"}, "geometry": {"type": "Point", "coordinates": [118.1179, -27.4063]}}, {"id": "277", "type": "Feature", "properties": {"age": "Archean", "comment": "nan", "commodities": ["Au"], "commodities_string": "Au", "id": 333680, "latitude": -27.0504, "longitude": 118.4583, "name": "Lewis - Reward"}, "geometry": {"type": "Point", "coordinates": [118.4583, -27.0504]}}, {"id": "278", "type": "Feature", "properties": {"age": "Archean", "comment": "nan", "commodities": ["Au"], "commodities_string": "Au", "id": 333681, "latitude": -27.4867, "longitude": 118.1186, "name": "Tuckabianna West"}, "geometry": {"type": "Point", "coordinates": [118.1186, -27.4867]}}, {"id": "279", "type": "Feature", "properties": {"age": "Early Ordovician", "comment": "nan", "commodities": ["Au"], "commodities_string": "Au", "id": 333682, "latitude": -37.55802823, "longitude": 143.86761140000002, "name": "Ballarat East"}, "geometry": {"type": "Point", "coordinates": [143.86761140000002, -37.55802823]}}, {"id": "280", "type": "Feature", "properties": {"age": "Permian", "comment": "nan", "commodities": ["U", "Mo"], "commodities_string": "U;Mo", "id": 333683, "latitude": -19.37695058, "longitude": 146.29998559999999, "name": "Ben Lomond"}, "geometry": {"type": "Point", "coordinates": [146.29998559999999, -19.37695058]}}, {"id": "281", "type": "Feature", "properties": {"age": "Silurian", "comment": "nan", "commodities": ["Ag", "Zn", "Cu", "Pb", "Au"], "commodities_string": "Ag;Zn;Cu;Pb;Au", "id": 333684, "latitude": -35.58617953, "longitude": 149.43459730000004, "name": "Captains Flat"}, "geometry": {"type": "Point", "coordinates": [149.43459730000004, -35.58617953]}}, {"id": "282", "type": "Feature", "properties": {"age": "Archaean", "comment": "nan", "commodities": ["Au"], "commodities_string": "Au", "id": 333686, "latitude": -33.06745028, "longitude": 118.3186977, "name": "Griffins Find"}, "geometry": {"type": "Point", "coordinates": [118.3186977, -33.06745028]}}, {"id": "283", "type": "Feature", "properties": {"age": "Archaean", "comment": "nan", "commodities": ["Au"], "commodities_string": "Au", "id": 333687, "latitude": -28.8737, "longitude": 121.322, "name": "Harbour Lights"}, "geometry": {"type": "Point", "coordinates": [121.322, -28.8737]}}, {"id": "284", "type": "Feature", "properties": {"age": "Palaeoproterozoic", "comment": "1650 Ma", "commodities": ["Ag", "Zn", "Cu", "Sb", "Pb"], "commodities_string": "Ag;Zn;Cu;Sb;Pb", "id": 333688, "latitude": -20.57105007, "longitude": 139.4720108, "name": "George Fisher"}, "geometry": {"type": "Point", "coordinates": [139.4720108, -20.57105007]}}, {"id": "285", "type": "Feature", "properties": {"age": "Archaean", "comment": "Alacer Gold Corporatin acquired the resource from Australian Mines Limited 4th of October 2011", "commodities": ["Au"], "commodities_string": "Au", "id": 333690, "latitude": -31.0128, "longitude": 121.6825, "name": "Mount Martin (gold)"}, "geometry": {"type": "Point", "coordinates": [121.6825, -31.0128]}}, {"id": "286", "type": "Feature", "properties": {"age": "Archaean", "comment": "nan", "commodities": ["Au"], "commodities_string": "Au", "id": 333691, "latitude": -30.485, "longitude": 121.3437, "name": "Paddington"}, "geometry": {"type": "Point", "coordinates": [121.3437, -30.485]}}, {"id": "287", "type": "Feature", "properties": {"age": "Palaeozoic", "comment": "nan", "commodities": ["Au"], "commodities_string": "Au", "id": 333692, "latitude": -34.58646337, "longitude": 147.5263257, "name": "Sebastopol-Junee Reefs"}, "geometry": {"type": "Point", "coordinates": [147.5263257, -34.58646337]}}, {"id": "288", "type": "Feature", "properties": {"age": "Ordovician", "comment": "nan", "commodities": ["Ag", "Zn", "Cu", "Pb", "Au"], "commodities_string": "Ag;Zn;Cu;Pb;Au", "id": 333693, "latitude": -18.7801, "longitude": 144.697, "name": "Surveyor 1"}, "geometry": {"type": "Point", "coordinates": [144.697, -18.7801]}}, {"id": "289", "type": "Feature", "properties": {"age": "Quaternary", "comment": "nan", "commodities": ["Ti", "Zr"], "commodities_string": "Ti;Zr", "id": 333694, "latitude": -33.64185, "longitude": 115.620102, "name": "Yoganup Group/Iluka"}, "geometry": {"type": "Point", "coordinates": [115.620102, -33.64185]}}, {"id": "290", "type": "Feature", "properties": {"age": "Archaean", "comment": "nan", "commodities": ["Au"], "commodities_string": "Au", "id": 333695, "latitude": -29.25372736, "longitude": 117.6917551, "name": "Paynes Find"}, "geometry": {"type": "Point", "coordinates": [117.6917551, -29.25372736]}}, {"id": "291", "type": "Feature", "properties": {"age": "Proterozoic", "comment": "nan", "commodities": ["U"], "commodities_string": "U", "id": 333697, "latitude": -20.43305043, "longitude": 139.46200990000003, "name": "Skal"}, "geometry": {"type": "Point", "coordinates": [139.46200990000003, -20.43305043]}}, {"id": "292", "type": "Feature", "properties": {"age": "Early Palaeozoic", "comment": "nan", "commodities": ["Au", "Cu"], "commodities_string": "Au;Cu", "id": 333699, "latitude": -34.88011508, "longitude": 138.76708280000003, "name": "Montacute"}, "geometry": {"type": "Point", "coordinates": [138.76708280000003, -34.88011508]}}, {"id": "293", "type": "Feature", "properties": {"age": "Late Ordovician", "comment": "nan", "commodities": ["Au"], "commodities_string": "Au", "id": 333701, "latitude": -37.7300131, "longitude": 143.68330930000002, "name": "Scarsdale-Berringa Goldfield"}, "geometry": {"type": "Point", "coordinates": [143.68330930000002, -37.7300131]}}, {"id": "294", "type": "Feature", "properties": {"age": "Tertiary", "comment": "nan", "commodities": ["Au"], "commodities_string": "Au", "id": 333702, "latitude": -36.14921134, "longitude": 146.5754503, "name": "Chiltern"}, "geometry": {"type": "Point", "coordinates": [146.5754503, -36.14921134]}}, {"id": "295", "type": "Feature", "properties": {"age": "Late Palaeozoic", "comment": "nan", "commodities": ["Au", "W", "Sb"], "commodities_string": "Au;W;Sb", "id": 333704, "latitude": -30.225557000000002, "longitude": 152.720304, "name": "Wild Cattle Creek"}, "geometry": {"type": "Point", "coordinates": [152.720304, -30.225557000000002]}}, {"id": "296", "type": "Feature", "properties": {"age": "Devonian", "comment": "nan", "commodities": ["W", "Bi", "Cu", "Mo", "Sn"], "commodities_string": "W;Bi;Cu;Mo;Sn", "id": 333707, "latitude": -41.47702417, "longitude": 145.38499950000002, "name": "Cleveland"}, "geometry": {"type": "Point", "coordinates": [145.38499950000002, -41.47702417]}}, {"id": "297", "type": "Feature", "properties": {"age": "Archaean", "comment": "nan", "commodities": ["Au"], "commodities_string": "Au", "id": 333708, "latitude": -30.32691558, "longitude": 121.2545873, "name": "Eureka - Bardoc"}, "geometry": {"type": "Point", "coordinates": [121.2545873, -30.32691558]}}, {"id": "298", "type": "Feature", "properties": {"age": "Precambrian", "comment": "nan", "commodities": ["Fe"], "commodities_string": "Fe", "id": 333709, "latitude": -23.29937994, "longitude": 117.788592, "name": "Channar - Hamersley"}, "geometry": {"type": "Point", "coordinates": [117.788592, -23.29937994]}}, {"id": "299", "type": "Feature", "properties": {"age": "Proterozoic", "comment": "nan", "commodities": ["Cu"], "commodities_string": "Cu", "id": 333710, "latitude": -20.91356013, "longitude": 139.9431989, "name": "Great Central"}, "geometry": {"type": "Point", "coordinates": [139.9431989, -20.91356013]}}, {"id": "300", "type": "Feature", "properties": {"age": "Proterozoic", "comment": "nan", "commodities": ["Au", "Cu"], "commodities_string": "Au;Cu", "id": 333711, "latitude": -20.44156392, "longitude": 139.8301946, "name": "Mount Olive"}, "geometry": {"type": "Point", "coordinates": [139.8301946, -20.44156392]}}, {"id": "301", "type": "Feature", "properties": {"age": "Archaean", "comment": "nan", "commodities": ["Au"], "commodities_string": "Au", "id": 333715, "latitude": -28.45200171, "longitude": 120.9130277, "name": "Bannockburn"}, "geometry": {"type": "Point", "coordinates": [120.9130277, -28.45200171]}}, {"id": "302", "type": "Feature", "properties": {"age": "Carboniferous", "comment": "nan", "commodities": ["Au"], "commodities_string": "Au", "id": 333716, "latitude": -18.21742765, "longitude": 142.25262959999998, "name": "Highland Mary - Caledonia"}, "geometry": {"type": "Point", "coordinates": [142.25262959999998, -18.21742765]}}, {"id": "303", "type": "Feature", "properties": {"age": "Late Palaeozoic", "comment": "nan", "commodities": ["W", "Cu", "Sn"], "commodities_string": "W;Cu;Sn", "id": 333717, "latitude": -17.62128258, "longitude": 145.0285909, "name": "Smith Creek"}, "geometry": {"type": "Point", "coordinates": [145.0285909, -17.62128258]}}, {"id": "304", "type": "Feature", "properties": {"age": "Archaean", "comment": "nan", "commodities": ["Au"], "commodities_string": "Au", "id": 333718, "latitude": -26.3725, "longitude": 120.6041, "name": "Jundee-Nimary"},